[{"center_id": "28000029", "center_name": "SAN BLAS", "center_type": "COLEGIO DE EDUCACIÓN INFANTIL, PRIMARIA Y SECUNDARIA", "ownership": "PÚBLICO", "municipality": "Ajalvir", "education_area": "Madrid-Este", "utm_x": 458832.0, "utm_y": 4487797.0, "longitude": -3.4861378682189157, "latitude": 40.53989855759195}, {"center_id": "28000042", "center_name": "EL ALAMO", "center_type": "COLEGIO DE EDUCACIÓN INFANTIL Y PRIMARIA", "ownership": "PÚBLICO", "municipality": "Álamo, El", "education_area": "Madrid-Sur", "utm_x": 415961.0, "utm_y": 4453703.0, "longitude": -3.9878353301642915, "latitude": 40.22954597458488}, {"center_id": "28000054", "center_name": "ANTONIO DE NEBRIJA", "center_type": "COLEGIO DE EDUCACIÓN INFANTIL Y PRIMARIA", "ownership": "PÚBLICO", "municipality": "Alcalá de Henares", "education_area": "Madrid-Este", "utm_x": 468386.0, "utm_y": 4482313.0, "longitude": -3.3730468733351042, "latitude": 40.490913857753725}, {"center_id": "28000066", "center_name": "CARDENAL CISNEROS", "center_type": "COLEGIO DE EDUCACIÓN INFANTIL Y PRIMARIA", "ownership": "PÚBLICO", "municipality": "Alcalá de Henares", "education_area": "Madrid-Este", "utm_x": 468658.0, "utm_y": 4481259.0, "longitude": -3.3697852067267346, "latitude": 40.48142883906656}, {"center_id": "28000078", "center_name": "CERVANTES", "center_type": "COLEGIO DE EDUCACIÓN INFANTIL Y PRIMARIA", "ownership": "PÚBLICO", "municipality": "Alcalá de Henares", "education_area": "Madrid-Este", "utm_x": 469547.0, "utm_y": 4481511.0, "longitude": -3.3593087394707726, "latitude": 40.483732155957014}, {"center_id": "28000081", "center_name": "DAOIZ Y VELARDE", "center_type": "COLEGIO DE EDUCACIÓN INFANTIL Y PRIMARIA", "ownership": "PÚBLICO", "municipality": "Alcalá de Henares", "education_area": "Madrid-Este", "utm_x": 468826.0, "utm_y": 4481956.0, "longitude": -3.3678373920096036, "latitude": 40.48771433911356}, {"center_id": "28000157", "center_name": "SAGRADO CORAZON DE JESUS", "center_type": "CENTRO PRIVADO DE EDUCACIÓN INFANTIL, PRIMARIA Y SECUNDARIA", "ownership": "PRIVADO CONCERTADO", "municipality": "Alcalá de Henares", "education_area": "Madrid-Este", "utm_x": 468895.0, "utm_y": 4481221.0, "longitude": -3.3669871781602443, "latitude": 40.48109541436965}, {"center_id": "28000224", "center_name": "SAN FELIPE NERI", "center_type": "CENTRO PRIVADO DE EDUCACIÓN INFANTIL, PRIMARIA Y SECUNDARIA", "ownership": "PRIVADO CONCERTADO", "municipality": "Alcalá de Henares", "education_area": "Madrid-Este", "utm_x": 468721.0, "utm_y": 4481288.0, "longitude": -3.3690433533876747, "latitude": 40.481692471783916}, {"center_id": "28000303", "center_name": "ESCUELAS PIAS", "center_type": "CENTRO PRIVADO DE EDUCACIÓN INFANTIL, PRIMARIA Y SECUNDARIA", "ownership": "PRIVADO CONCERTADO", "municipality": "Alcalá de Henares", "education_area": "Madrid-Este", "utm_x": 470018.0, "utm_y": 4481495.0, "longitude": -3.353750851094971, "latitude": 40.48360515631326}, {"center_id": "28000315", "center_name": "EMPERADOR FERNANDO", "center_type": "COLEGIO DE EDUCACIÓN INFANTIL Y PRIMARIA", "ownership": "PÚBLICO", "municipality": "Alcalá de Henares", "education_area": "Madrid-Este", "utm_x": 468369.0, "utm_y": 4480180.0, "longitude": -3.3731410556255357, "latitude": 40.471697312110365}, {"center_id": "28000327", "center_name": "SANTA MARIA DE LA PROVIDENCIA", "center_type": "CENTRO PRIVADO DE EDUCACIÓN INFANTIL, PRIMARIA Y SECUNDARIA", "ownership": "PRIVADO CONCERTADO", "municipality": "Alcalá de Henares", "education_area": "Madrid-Este", "utm_x": 469022.0, "utm_y": 4482033.0, "longitude": -3.365528499685927, "latitude": 40.488415358348576}, {"center_id": "28000364", "center_name": "COMPLUTENSE", "center_type": "INSTITUTO DE EDUCACIÓN SECUNDARIA", "ownership": "PÚBLICO", "municipality": "Alcalá de Henares", "education_area": "Madrid-Este", "utm_x": 470510.0, "utm_y": 4481599.0, "longitude": -3.3479507945938325, "latitude": 40.48455970115132}, {"center_id": "28000376", "center_name": "NUESTRA SEÑORA DEL VAL", "center_type": "COLEGIO DE EDUCACIÓN INFANTIL, PRIMARIA Y SECUNDARIA", "ownership": "PÚBLICO", "municipality": "Alcalá de Henares", "education_area": "Madrid-Este", "utm_x": 470873.0, "utm_y": 4481791.0, "longitude": -3.343676674655865, "latitude": 40.486302221160926}, {"center_id": "28000388", "center_name": "DOCTORA DE ALCALA", "center_type": "COLEGIO DE EDUCACIÓN INFANTIL Y PRIMARIA", "ownership": "PÚBLICO", "municipality": "Alcalá de Henares", "education_area": "Madrid-Este", "utm_x": 469522.0, "utm_y": 4482291.0, "longitude": -3.3596412104821707, "latitude": 40.49075815267809}, {"center_id": "28000406", "center_name": "SAN GABRIEL", "center_type": "CENTRO PRIVADO DE EDUCACIÓN INFANTIL, PRIMARIA Y SECUNDARIA", "ownership": "PRIVADO CONCERTADO", "municipality": "Alcalá de Henares", "education_area": "Madrid-Este", "utm_x": 467137.0, "utm_y": 4483263.0, "longitude": -3.3878341003852435, "latitude": 40.49942372883442}, {"center_id": "28000421", "center_name": "SAN IGNACIO DE LOYOLA", "center_type": "CENTRO PRIVADO DE EDUCACIÓN INFANTIL, PRIMARIA Y SECUNDARIA", "ownership": "PRIVADO CONCERTADO", "municipality": "Alcalá de Henares", "education_area": "Madrid-Este", "utm_x": 469041.0, "utm_y": 4482916.0, "longitude": -3.3653474519404805, "latitude": 40.49637088213214}, {"center_id": "28000467", "center_name": "ALONSO DE AVELLANEDA", "center_type": "INSTITUTO DE EDUCACIÓN SECUNDARIA", "ownership": "PÚBLICO", "municipality": "Alcalá de Henares", "education_area": "Madrid-Este", "utm_x": 471046.0, "utm_y": 4482286.0, "longitude": -3.3416580529964808, "latitude": 40.49076766827107}, {"center_id": "28000479", "center_name": "CALASANZ", "center_type": "CENTRO PRIVADO DE EDUCACIÓN INFANTIL, PRIMARIA Y SECUNDARIA", "ownership": "PRIVADO CONCERTADO", "municipality": "Alcalá de Henares", "education_area": "Madrid-Este", "utm_x": 468941.0, "utm_y": 4481493.0, "longitude": -3.366457790608369, "latitude": 40.48354754761073}, {"center_id": "28000492", "center_name": "LOPE DE VEGA", "center_type": "CENTRO PRIVADO DE EDUCACIÓN INFANTIL, PRIMARIA Y SECUNDARIA", "ownership": "PRIVADO CONCERTADO", "municipality": "Alcalá de Henares", "education_area": "Madrid-Este", "utm_x": 469744.0, "utm_y": 4482228.0, "longitude": -3.3570186452283197, "latitude": 40.490198716207594}, {"center_id": "28000522", "center_name": "ANTONIO MACHADO", "center_type": "INSTITUTO DE EDUCACIÓN SECUNDARIA", "ownership": "PÚBLICO", "municipality": "Alcalá de Henares", "education_area": "Madrid-Este", "utm_x": 468665.0, "utm_y": 4482393.0, "longitude": -3.369758679733349, "latitude": 40.49164514503231}, {"center_id": "28000558", "center_name": "INFANTA CATALINA", "center_type": "COLEGIO DE EDUCACIÓN INFANTIL Y PRIMARIA", "ownership": "PÚBLICO", "municipality": "Alcalá de Henares", "education_area": "Madrid-Este", "utm_x": 468204.0, "utm_y": 4480481.0, "longitude": -3.375102558617219, "latitude": 40.47440268228785}, {"center_id": "28000595", "center_name": "FEDERICO GARCIA LORCA", "center_type": "COLEGIO DE EDUCACIÓN INFANTIL Y PRIMARIA", "ownership": "PÚBLICO", "municipality": "Alcobendas", "education_area": "Madrid-Norte", "utm_x": 445032.0, "utm_y": 4488554.0, "longitude": -3.649154170575493, "latitude": 40.54591737967274}, {"center_id": "28000601", "center_name": "ANTONIO MACHADO", "center_type": "COLEGIO DE EDUCACIÓN INFANTIL Y PRIMARIA", "ownership": "PÚBLICO", "municipality": "Alcobendas", "education_area": "Madrid-Norte", "utm_x": 445886.0, "utm_y": 4488631.0, "longitude": -3.639075902795288, "latitude": 40.546667248470506}, {"center_id": "28000625", "center_name": "SAN PEDRO APOSTOL", "center_type": "ESCUELA INFANTIL PRIVADA", "ownership": "PRIVADO CONCERTADO", "municipality": "Alcobendas", "education_area": "Madrid-Norte", "utm_x": 446447.0, "utm_y": 4488013.0, "longitude": -3.6323986231886805, "latitude": 40.54113651037324}, {"center_id": "28000649", "center_name": "SAN ANTONIO", "center_type": "CENTRO PRIVADO DE EDUCACIÓN PRIMARIA", "ownership": "PRIVADO CONCERTADO", "municipality": "Alcobendas", "education_area": "Madrid-Norte", "utm_x": 446743.0, "utm_y": 4488144.0, "longitude": -3.6289144452271764, "latitude": 40.54233569048353}, {"center_id": "28000698", "center_name": "LICEO EUROPEO", "center_type": "CENTRO PRIVADO DE EDUCACIÓN PRIMARIA Y SECUNDARIA", "ownership": "PRIVADO", "municipality": "Alcobendas", "education_area": "Madrid-Norte", "utm_x": 445505.0, "utm_y": 4484772.0, "longitude": -3.6432426902918125, "latitude": 40.51187883075574}, {"center_id": "28000753", "center_name": "FRANCISCO GINER DE LOS RIOS", "center_type": "INSTITUTO DE EDUCACIÓN SECUNDARIA", "ownership": "PÚBLICO", "municipality": "Alcobendas", "education_area": "Madrid-Norte", "utm_x": 447429.0, "utm_y": 4487172.0, "longitude": -3.6207330696685234, "latitude": 40.53362330385309}, {"center_id": "28000765", "center_name": "DAOIZ Y VELARDE", "center_type": "COLEGIO DE EDUCACIÓN INFANTIL Y PRIMARIA", "ownership": "PÚBLICO", "municipality": "Alcobendas", "education_area": "Madrid-Norte", "utm_x": 443977.0, "utm_y": 4488551.0, "longitude": -3.6616123293047367, "latitude": 40.54581968361288}, {"center_id": "28000777", "center_name": "BIENAVENTURADA VIRGEN MARIA", "center_type": "CENTRO PRIVADO DE EDUCACIÓN INFANTIL, PRIMARIA Y SECUNDARIA", "ownership": "PRIVADO", "municipality": "Alcobendas", "education_area": "Madrid-Norte", "utm_x": 445727.0, "utm_y": 4486106.0, "longitude": -3.6407368247161185, "latitude": 40.523910631725585}, {"center_id": "28000820", "center_name": "COLEGIO SUIZO DE MADRID (SUIZO)", "center_type": "CENTRO DOCENTE EXTRANJERO EN ESPAÑA", "ownership": "PRIVADO", "municipality": "Alcobendas", "education_area": "Madrid-Norte", "utm_x": 444586.0, "utm_y": 4485638.0, "longitude": -3.654165444741796, "latitude": 40.51961922510516}, {"center_id": "28000856", "center_name": "CARMEN CONDE", "center_type": "COLEGIO DE EDUCACIÓN INFANTIL Y PRIMARIA", "ownership": "PÚBLICO", "municipality": "Alcorcón", "education_area": "Madrid-Sur", "utm_x": 429272.0, "utm_y": 4466006.0, "longitude": -3.8327474762414266, "latitude": 40.34160596633949}, {"center_id": "28000901", "center_name": "COLEGIO SEI RIHONDO", "center_type": "CENTRO PRIVADO DE EDUCACIÓN INFANTIL, PRIMARIA Y SECUNDARIA", "ownership": "PRIVADO CONCERTADO", "municipality": "Alcorcón", "education_area": "Madrid-Sur", "utm_x": 428975.0, "utm_y": 4466342.0, "longitude": -3.836281364146292, "latitude": 40.344607529947695}, {"center_id": "28000947", "center_name": "SANTISIMA TRINIDAD", "center_type": "CENTRO PRIVADO DE EDUCACIÓN INFANTIL, PRIMARIA Y SECUNDARIA", "ownership": "PRIVADO CONCERTADO", "municipality": "Alcorcón", "education_area": "Madrid-Sur", "utm_x": 430991.0, "utm_y": 4467463.0, "longitude": -3.8126675468283597, "latitude": 40.35487506923436}, {"center_id": "28000960", "center_name": "NUESTRA SEÑORA DE LOS REMEDIOS", "center_type": "CENTRO PRIVADO DE EDUCACIÓN INFANTIL, PRIMARIA Y SECUNDARIA", "ownership": "PRIVADO CONCERTADO", "municipality": "Alcorcón", "education_area": "Madrid-Sur", "utm_x": 429201.0, "utm_y": 4466399.0, "longitude": -3.8336269238575715, "latitude": 40.34514021156896}, {"center_id": "28001010", "center_name": "AMOR DE DIOS", "center_type": "CENTRO PRIVADO DE EDUCACIÓN INFANTIL, PRIMARIA Y SECUNDARIA", "ownership": "PRIVADO CONCERTADO", "municipality": "Alcorcón", "education_area": "Madrid-Sur", "utm_x": 430735.0, "utm_y": 4467059.0, "longitude": -3.8156381271504642, "latitude": 40.35121448031723}, {"center_id": "28001022", "center_name": "LA INMACULADA", "center_type": "CENTRO PRIVADO DE EDUCACIÓN INFANTIL, PRIMARIA Y SECUNDARIA", "ownership": "PRIVADO CONCERTADO", "municipality": "Alcorcón", "education_area": "Madrid-Sur", "utm_x": 431067.0, "utm_y": 4466962.0, "longitude": -3.8117185177850708, "latitude": 40.35036817255408}, {"center_id": "28001034", "center_name": "VIRGEN DEL REMEDIO", "center_type": "CENTRO PRIVADO DE EDUCACIÓN INFANTIL, PRIMARIA Y SECUNDARIA", "ownership": "PRIVADO CONCERTADO", "municipality": "Alcorcón", "education_area": "Madrid-Sur", "utm_x": 430148.0, "utm_y": 4467116.0, "longitude": -3.8225559812111145, "latitude": 40.351679005801}, {"center_id": "28001046", "center_name": "CENTRO EDUCATIVO VILLA DE ALCORCON", "center_type": "CENTRO PRIVADO DE EDUCACIÓN INFANTIL, PRIMARIA Y SECUNDARIA", "ownership": "PRIVADO CONCERTADO", "municipality": "Alcorcón", "education_area": "Madrid-Sur", "utm_x": 429720.0, "utm_y": 4466865.0, "longitude": -3.8275678424616695, "latitude": 40.34938196782095}, {"center_id": "28001137", "center_name": "DANIEL MARTIN", "center_type": "COLEGIO DE EDUCACIÓN INFANTIL, PRIMARIA Y SECUNDARIA", "ownership": "PÚBLICO", "municipality": "Alcorcón", "education_area": "Madrid-Sur", "utm_x": 430417.0, "utm_y": 4466548.0, "longitude": -3.8193267022589823, "latitude": 40.346584754860494}, {"center_id": "28001149", "center_name": "PARROCO D. VICTORIANO", "center_type": "COLEGIO DE EDUCACIÓN INFANTIL Y PRIMARIA", "ownership": "PÚBLICO", "municipality": "Alcorcón", "education_area": "Madrid-Sur", "utm_x": 430394.0, "utm_y": 4466314.0, "longitude": -3.819571981894105, "latitude": 40.34447488473685}, {"center_id": "28001241", "center_name": "NUESTRA SEÑORA DE FATIMA", "center_type": "COLEGIO DE EDUCACIÓN INFANTIL Y PRIMARIA", "ownership": "PÚBLICO", "municipality": "Aldea del Fresno", "education_area": "Madrid-Sur", "utm_x": 398068.0, "utm_y": 4464438.0, "longitude": -4.19982675265178, "latitude": 40.32425441617782}, {"center_id": "28001277", "center_name": "OBISPO MOSCOSO", "center_type": "COLEGIO DE EDUCACIÓN INFANTIL Y PRIMARIA", "ownership": "PÚBLICO", "municipality": "Algete", "education_area": "Madrid-Norte", "utm_x": 457953.0, "utm_y": 4494426.0, "longitude": -3.4969588651637076, "latitude": 40.599572255715465}, {"center_id": "28001289", "center_name": "SANTA QUITERIA", "center_type": "COLEGIO DE EDUCACIÓN INFANTIL Y PRIMARIA", "ownership": "PÚBLICO", "municipality": "Alpedrete", "education_area": "Madrid-Oeste", "utm_x": 413796.0, "utm_y": 4500973.0, "longitude": -4.019694331214916, "latitude": 40.65511956902241}, {"center_id": "28001371", "center_name": "SAN JOSE DE CALASANZ", "center_type": "COLEGIO DE EDUCACIÓN INFANTIL, PRIMARIA Y SECUNDARIA", "ownership": "PÚBLICO", "municipality": "Aranjuez", "education_area": "Madrid-Sur", "utm_x": 449000.0, "utm_y": 4430989.0, "longitude": -3.5977102543987303, "latitude": 40.02757612938724}, {"center_id": "28001435", "center_name": "VIRGEN DEL PUERTO", "center_type": "CENTRO PRIVADO DE EDUCACIÓN INFANTIL", "ownership": "PRIVADO", "municipality": "Aranjuez", "education_area": "Madrid-Sur", "utm_x": 448509.0, "utm_y": 4430808.0, "longitude": -3.603450011937153, "latitude": 40.0259156298898}, {"center_id": "28001514", "center_name": "SAGRADA FAMILIA", "center_type": "CENTRO PRIVADO DE EDUCACIÓN INFANTIL, PRIMARIA Y SECUNDARIA", "ownership": "PRIVADO CONCERTADO", "municipality": "Aranjuez", "education_area": "Madrid-Sur", "utm_x": 448554.0, "utm_y": 4431962.0, "longitude": -3.6030142118242923, "latitude": 40.03631505445386}, {"center_id": "28001538", "center_name": "SAN PASCUAL", "center_type": "CENTRO PRIVADO DE EDUCACIÓN INFANTIL Y PRIMARIA", "ownership": "PRIVADO CONCERTADO", "municipality": "Aranjuez", "education_area": "Madrid-Sur", "utm_x": 448770.0, "utm_y": 4431182.0, "longitude": -3.6004209160944334, "latitude": 40.02930098245991}, {"center_id": "28001551", "center_name": "VICENTE ALEIXANDRE", "center_type": "COLEGIO DE EDUCACIÓN INFANTIL Y PRIMARIA", "ownership": "PÚBLICO", "municipality": "Aranjuez", "education_area": "Madrid-Sur", "utm_x": 448855.0, "utm_y": 4431855.0, "longitude": -3.5994778411179653, "latitude": 40.035369370652596}, {"center_id": "28001563", "center_name": "APOSTOL SANTIAGO", "center_type": "CENTRO PRIVADO DE EDUCACIÓN INFANTIL, PRIMARIA Y SECUNDARIA", "ownership": "PRIVADO CONCERTADO", "municipality": "Aranjuez", "education_area": "Madrid-Sur", "utm_x": 449686.0, "utm_y": 4431847.0, "longitude": -3.5897374418551418, "latitude": 40.03534727704627}, {"center_id": "28001605", "center_name": "LOYOLA", "center_type": "CENTRO PRIVADO DE EDUCACIÓN INFANTIL, PRIMARIA Y SECUNDARIA", "ownership": "PRIVADO CONCERTADO", "municipality": "Aranjuez", "education_area": "Madrid-Sur", "utm_x": 447999.0, "utm_y": 4431042.0, "longitude": -3.609445411992293, "latitude": 40.027992516276186}, {"center_id": "28001617", "center_name": "SAN ISIDRO", "center_type": "COLEGIO DE EDUCACIÓN INFANTIL Y PRIMARIA", "ownership": "PÚBLICO", "municipality": "Aranjuez", "education_area": "Madrid-Sur", "utm_x": 449488.0, "utm_y": 4431557.0, "longitude": -3.5920355185019632, "latitude": 40.03272275498869}, {"center_id": "28001629", "center_name": "DOMENICO SCARLATTI", "center_type": "INSTITUTO DE EDUCACIÓN SECUNDARIA", "ownership": "PÚBLICO", "municipality": "Aranjuez", "education_area": "Madrid-Sur", "utm_x": 448012.0, "utm_y": 4431221.0, "longitude": -3.6093074103446456, "latitude": 40.029605972736356}, {"center_id": "28001642", "center_name": "PRINCIPE DE ASTURIAS", "center_type": "COLEGIO DE EDUCACIÓN ESPECIAL", "ownership": "PÚBLICO", "municipality": "Aranjuez", "education_area": "Madrid-Sur", "utm_x": 447882.0, "utm_y": 4431228.0, "longitude": -3.6108315113872025, "latitude": 40.02966101623863}, {"center_id": "28001678", "center_name": "JORGE MANRIQUE", "center_type": "INSTITUTO DE EDUCACIÓN SECUNDARIA", "ownership": "PÚBLICO", "municipality": "Tres Cantos", "education_area": "Madrid-Norte", "utm_x": 440399.0, "utm_y": 4493685.0, "longitude": -3.704349069862419, "latitude": 40.591818270186636}, {"center_id": "28001681", "center_name": "NUESTRA SEÑORA DE LA MILAGROSA", "center_type": "COLEGIO DE EDUCACIÓN INFANTIL Y PRIMARIA", "ownership": "PÚBLICO", "municipality": "Arganda del Rey", "education_area": "Madrid-Este", "utm_x": 462127.0, "utm_y": 4461186.0, "longitude": -3.445644847050918, "latitude": 40.30032059749301}, {"center_id": "28001769", "center_name": "EL CARRASCAL", "center_type": "INSTITUTO DE EDUCACIÓN SECUNDARIA", "ownership": "PÚBLICO", "municipality": "Arganda del Rey", "education_area": "Madrid-Este", "utm_x": 462479.0, "utm_y": 4460073.0, "longitude": -3.4414377869377817, "latitude": 40.29030937778844}, {"center_id": "28001770", "center_name": "SAN JUAN BAUTISTA", "center_type": "COLEGIO DE EDUCACIÓN INFANTIL Y PRIMARIA", "ownership": "PÚBLICO", "municipality": "Arganda del Rey", "education_area": "Madrid-Este", "utm_x": 462730.0, "utm_y": 4460784.0, "longitude": -3.438526236282445, "latitude": 40.296726062686986}, {"center_id": "28001794", "center_name": "EL TORREON", "center_type": "COLEGIO DE EDUCACIÓN INFANTIL Y PRIMARIA", "ownership": "PÚBLICO", "municipality": "Arroyomolinos", "education_area": "Madrid-Sur", "utm_x": 421881.0, "utm_y": 4457863.0, "longitude": -3.9187641532326443, "latitude": 40.26759327537878}, {"center_id": "28001812", "center_name": "JUAN RAMON JIMENEZ", "center_type": "COLEGIO DE EDUCACIÓN INFANTIL, PRIMARIA Y SECUNDARIA", "ownership": "PÚBLICO", "municipality": "Becerril de la Sierra", "education_area": "Madrid-Oeste", "utm_x": 416281.0, "utm_y": 4507436.0, "longitude": -3.991165978448751, "latitude": 40.71359010819917}, {"center_id": "28001824", "center_name": "BELMONTE DE TAJO", "center_type": "COLEGIO DE EDUCACIÓN INFANTIL Y PRIMARIA", "ownership": "PÚBLICO", "municipality": "Belmonte de Tajo", "education_area": "Madrid-Este", "utm_x": 471386.0, "utm_y": 4442716.0, "longitude": -3.3358752788734023, "latitude": 40.13428703228492}, {"center_id": "28001848", "center_name": "PRINCIPE DON FELIPE", "center_type": "COLEGIO DE EDUCACIÓN INFANTIL, PRIMARIA Y SECUNDARIA", "ownership": "PÚBLICO", "municipality": "Boadilla del Monte", "education_area": "Madrid-Oeste", "utm_x": 425438.0, "utm_y": 4473342.0, "longitude": -3.8787419681501087, "latitude": 40.407356029158265}, {"center_id": "28001851", "center_name": "VIRGEN DE EUROPA", "center_type": "CENTRO PRIVADO DE EDUCACIÓN INFANTIL, PRIMARIA Y SECUNDARIA", "ownership": "PRIVADO", "municipality": "Boadilla del Monte", "education_area": "Madrid-Oeste", "utm_x": 424464.0, "utm_y": 4475964.0, "longitude": -3.890531024849413, "latitude": 40.43088735456706}, {"center_id": "28001861", "center_name": "TRINITY COLLEGE BOADILLA", "center_type": "CENTRO PRIVADO DE EDUCACIÓN INFANTIL, PRIMARIA Y SECUNDARIA", "ownership": "PRIVADO", "municipality": "Boadilla del Monte", "education_area": "Madrid-Oeste", "utm_x": 424290.0, "utm_y": 4477369.0, "longitude": -3.8927495584533927, "latitude": 40.443527810198674}, {"center_id": "28001873", "center_name": "SAN SEBASTIAN", "center_type": "COLEGIO DE EDUCACIÓN INFANTIL Y PRIMARIA", "ownership": "PÚBLICO", "municipality": "Boalo, El", "education_area": "Madrid-Oeste", "utm_x": 422324.0, "utm_y": 4507150.0, "longitude": -3.919595359001392, "latitude": 40.71160605092681}, {"center_id": "28001940", "center_name": "BATALLA DE BRUNETE", "center_type": "COLEGIO DE EDUCACIÓN INFANTIL Y PRIMARIA", "ownership": "PÚBLICO", "municipality": "Brunete", "education_area": "Madrid-Sur", "utm_x": 415045.0, "utm_y": 4473287.0, "longitude": -4.0012034964216845, "latitude": 40.40586492671686}, {"center_id": "28001952", "center_name": "PEÑALTA", "center_type": "COLEGIO DE EDUCACIÓN INFANTIL, PRIMARIA Y SECUNDARIA", "ownership": "PÚBLICO", "municipality": "Buitrago del Lozoya", "education_area": "Madrid-Norte", "utm_x": 446417.0, "utm_y": 4538003.0, "longitude": -3.6370385638425002, "latitude": 40.991447040926225}, {"center_id": "28001976", "center_name": "GSD INTERNATIONAL SCHOOL BUITRAGO", "center_type": "CENTRO PRIVADO DE EDUCACIÓN PRIMARIA Y SECUNDARIA", "ownership": "PRIVADO CONCERTADO", "municipality": "Buitrago del Lozoya", "education_area": "Madrid-Norte", "utm_x": 446290.0, "utm_y": 4537673.0, "longitude": -3.638519676159367, "latitude": 40.98846614846067}, {"center_id": "28001991", "center_name": "MONTELINDO", "center_type": "COLEGIO DE EDUCACIÓN INFANTIL Y PRIMARIA", "ownership": "PÚBLICO", "municipality": "Bustarviejo", "education_area": "Madrid-Norte", "utm_x": 440782.0, "utm_y": 4523528.0, "longitude": -3.7026449917074395, "latitude": 40.86067128046041}, {"center_id": "28002014", "center_name": "PICO DE LA MIEL", "center_type": "COLEGIO DE EDUCACIÓN INFANTIL Y PRIMARIA", "ownership": "PÚBLICO", "municipality": "Cabrera, La", "education_area": "Madrid-Norte", "utm_x": 448706.0, "utm_y": 4524776.0, "longitude": -3.608731984251889, "latitude": 40.87244757201012}, {"center_id": "28002026", "center_name": "EUGENIO MURO", "center_type": "COLEGIO DE EDUCACIÓN INFANTIL, PRIMARIA Y SECUNDARIA", "ownership": "PÚBLICO", "municipality": "Cadalso de los Vidrios", "education_area": "Madrid-Sur", "utm_x": 376734.0, "utm_y": 4462250.0, "longitude": -4.450454752318334, "latitude": 40.30167162131788}, {"center_id": "28002038", "center_name": "FEDERICO GARCIA LORCA", "center_type": "COLEGIO DE EDUCACIÓN INFANTIL, PRIMARIA Y SECUNDARIA", "ownership": "PÚBLICO", "municipality": "Camarma de Esteruelas", "education_area": "Madrid-Este", "utm_x": 468269.0, "utm_y": 4488523.0, "longitude": -3.3747388317441507, "latitude": 40.5468540389558}, {"center_id": "28002041", "center_name": "MIGUEL DELIBES", "center_type": "COLEGIO DE EDUCACIÓN INFANTIL Y PRIMARIA", "ownership": "PÚBLICO", "municipality": "Campo Real", "education_area": "Madrid-Este", "utm_x": 468397.0, "utm_y": 4465657.0, "longitude": -3.372089564544155, "latitude": 40.340860992437}, {"center_id": "28002099", "center_name": "TOME Y ORGAZ", "center_type": "COLEGIO DE EDUCACIÓN INFANTIL Y PRIMARIA", "ownership": "PÚBLICO", "municipality": "Casarrubuelos", "education_area": "Madrid-Sur", "utm_x": 429657.0, "utm_y": 4446952.0, "longitude": -3.82612476369615, "latitude": 40.16999126224444}, {"center_id": "28002105", "center_name": "SUAREZ SOMONTE", "center_type": "COLEGIO DE EDUCACIÓN INFANTIL, PRIMARIA Y SECUNDARIA", "ownership": "PÚBLICO", "municipality": "Cenicientos", "education_area": "Madrid-Sur", "utm_x": 375012.0, "utm_y": 4457835.0, "longitude": -4.469849434554978, "latitude": 40.26165263082313}, {"center_id": "28002129", "center_name": "VIA ROMANA", "center_type": "COLEGIO DE EDUCACIÓN INFANTIL Y PRIMARIA", "ownership": "PÚBLICO", "municipality": "Cercedilla", "education_area": "Madrid-Oeste", "utm_x": 411461.0, "utm_y": 4510509.0, "longitude": -4.048656511900384, "latitude": 40.740765058376105}, {"center_id": "28002142", "center_name": "REGINA ASSUMPTA", "center_type": "CENTRO PRIVADO DE EDUCACIÓN INFANTIL Y PRIMARIA", "ownership": "PRIVADO CONCERTADO", "municipality": "Cercedilla", "education_area": "Madrid-Oeste", "utm_x": 410644.0, "utm_y": 4510267.0, "longitude": -4.058296951581502, "latitude": 40.73849702267384}, {"center_id": "28002166", "center_name": "VENTURA RODRIGUEZ", "center_type": "COLEGIO DE EDUCACIÓN INFANTIL Y PRIMARIA", "ownership": "PÚBLICO", "municipality": "Ciempozuelos", "education_area": "Madrid-Sur", "utm_x": 446550.0, "utm_y": 4445318.0, "longitude": -3.627606853507874, "latitude": 40.15651613490144}, {"center_id": "28002181", "center_name": "JUAN CARLOS I", "center_type": "INSTITUTO DE EDUCACIÓN SECUNDARIA", "ownership": "PÚBLICO", "municipality": "Ciempozuelos", "education_area": "Madrid-Sur", "utm_x": 447174.0, "utm_y": 4444995.0, "longitude": -3.6202538137172136, "latitude": 40.153645697871255}, {"center_id": "28002191", "center_name": "VIRGEN DEL CONSUELO", "center_type": "COLEGIO DE EDUCACIÓN INFANTIL Y PRIMARIA", "ownership": "PÚBLICO", "municipality": "Ciempozuelos", "education_area": "Madrid-Sur", "utm_x": 447147.0, "utm_y": 4445312.0, "longitude": -3.6205968124070558, "latitude": 40.15649986229164}, {"center_id": "28002208", "center_name": "SAN JUAN DE DIOS", "center_type": "CENTRO PRIVADO DE FORMACIÓN PROFESIONAL ESPECÍFICA", "ownership": "PRIVADO CONCERTADO", "municipality": "Ciempozuelos", "education_area": "Madrid-Sur", "utm_x": 448005.0, "utm_y": 4445613.0, "longitude": -3.6105470598625566, "latitude": 40.159265140453414}, {"center_id": "28002211", "center_name": "VILLA DE COBEÑA", "center_type": "COLEGIO DE EDUCACIÓN INFANTIL, PRIMARIA Y SECUNDARIA", "ownership": "PÚBLICO", "municipality": "Cobeña", "education_area": "Madrid-Norte", "utm_x": 457159.0, "utm_y": 4491094.0, "longitude": -3.506116595951632, "latitude": 40.56951505293155}, {"center_id": "28002245", "center_name": "APIS AURELIA", "center_type": "COLEGIO DE EDUCACIÓN INFANTIL Y PRIMARIA", "ownership": "PÚBLICO", "municipality": "Colmenar de Oreja", "education_area": "Madrid-Este", "utm_x": 466596.0, "utm_y": 4440444.0, "longitude": -3.391982258361875, "latitude": 40.11364096218828}, {"center_id": "28002269", "center_name": "SEIS DE DICIEMBRE", "center_type": "COLEGIO DE EDUCACIÓN INFANTIL Y PRIMARIA", "ownership": "PÚBLICO", "municipality": "Colmenarejo", "education_area": "Madrid-Oeste", "utm_x": 414069.0, "utm_y": 4490088.0, "longitude": -4.014981067135614, "latitude": 40.55710208312781}, {"center_id": "28002270", "center_name": "SOLEDAD SAINZ", "center_type": "COLEGIO DE EDUCACIÓN INFANTIL Y PRIMARIA", "ownership": "PÚBLICO", "municipality": "Colmenar Viejo", "education_area": "Madrid-Norte", "utm_x": 435429.0, "utm_y": 4501233.0, "longitude": -3.7638527478275448, "latitude": 40.659437780235805}, {"center_id": "28002282", "center_name": "VIRGEN DE LOS REMEDIOS", "center_type": "COLEGIO DE EDUCACIÓN INFANTIL Y PRIMARIA", "ownership": "PÚBLICO", "municipality": "Colmenar Viejo", "education_area": "Madrid-Norte", "utm_x": 435134.0, "utm_y": 4501531.0, "longitude": -3.767372962447049, "latitude": 40.66209901552117}, {"center_id": "28002312", "center_name": "MARQUES DE SANTILLANA", "center_type": "INSTITUTO DE EDUCACIÓN SECUNDARIA", "ownership": "PÚBLICO", "municipality": "Colmenar Viejo", "education_area": "Madrid-Norte", "utm_x": 434845.0, "utm_y": 4502351.0, "longitude": -3.7708766235684372, "latitude": 40.66946276010974}, {"center_id": "28002361", "center_name": "VIRGEN DE LA PAZ", "center_type": "COLEGIO DE EDUCACIÓN INFANTIL Y PRIMARIA", "ownership": "PÚBLICO", "municipality": "Collado Mediano", "education_area": "Madrid-Oeste", "utm_x": 412816.0, "utm_y": 4505384.0, "longitude": -4.0318972714901316, "latitude": 40.69474776116179}, {"center_id": "28002385", "center_name": "CAÑADA REAL", "center_type": "COLEGIO DE EDUCACIÓN INFANTIL Y PRIMARIA", "ownership": "PÚBLICO", "municipality": "Collado Villalba", "education_area": "Madrid-Oeste", "utm_x": 414458.0, "utm_y": 4498946.0, "longitude": -4.011589059297538, "latitude": 40.6369304779873}, {"center_id": "28002397", "center_name": "SANTISIMA TRINIDAD", "center_type": "CENTRO PRIVADO DE EDUCACIÓN INFANTIL, PRIMARIA Y SECUNDARIA", "ownership": "PRIVADO CONCERTADO", "municipality": "Collado Villalba", "education_area": "Madrid-Oeste", "utm_x": 414652.0, "utm_y": 4497956.0, "longitude": -4.009160948204853, "latitude": 40.62803321001624}, {"center_id": "28002403", "center_name": "MIGUEL DELIBES", "center_type": "COLEGIO DE EDUCACIÓN INFANTIL Y PRIMARIA", "ownership": "PÚBLICO", "municipality": "Collado Villalba", "education_area": "Madrid-Oeste", "utm_x": 415183.0, "utm_y": 4497766.0, "longitude": -4.002857680052627, "latitude": 40.62637648587222}, {"center_id": "28002415", "center_name": "JAIME FERRAN", "center_type": "INSTITUTO DE EDUCACIÓN SECUNDARIA", "ownership": "PÚBLICO", "municipality": "Collado Villalba", "education_area": "Madrid-Oeste", "utm_x": 415198.0, "utm_y": 4499081.0, "longitude": -4.002857562326785, "latitude": 40.638222799279056}, {"center_id": "28002427", "center_name": "VIRGEN DE LA ALMUDENA", "center_type": "CENTRO PRIVADO DE EDUCACIÓN INFANTIL, PRIMARIA Y SECUNDARIA", "ownership": "PRIVADO CONCERTADO", "municipality": "Collado Villalba", "education_area": "Madrid-Oeste", "utm_x": 415723.0, "utm_y": 4499209.0, "longitude": -3.99666702423593, "latitude": 40.63942949712068}, {"center_id": "28002464", "center_name": "SAN PABLO", "center_type": "COLEGIO DE EDUCACIÓN INFANTIL Y PRIMARIA", "ownership": "PÚBLICO", "municipality": "Coslada", "education_area": "Madrid-Este", "utm_x": 451771.0, "utm_y": 4475359.0, "longitude": -3.5685687744921637, "latitude": 40.4274686680036}, {"center_id": "28002488", "center_name": "MAMA JUANITA", "center_type": "CENTRO PRIVADO DE EDUCACIÓN INFANTIL", "ownership": "PRIVADO CONCERTADO", "municipality": "Coslada", "education_area": "Madrid-Este", "utm_x": 451763.0, "utm_y": 4475386.0, "longitude": -3.5686651302531045, "latitude": 40.4277114388162}, {"center_id": "28002506", "center_name": "VIRGEN DEL HENAR", "center_type": "CENTRO PRIVADO DE EDUCACIÓN INFANTIL, PRIMARIA Y SECUNDARIA", "ownership": "PRIVADO CONCERTADO", "municipality": "Coslada", "education_area": "Madrid-Este", "utm_x": 452169.0, "utm_y": 4475393.0, "longitude": -3.563879550975689, "latitude": 40.427797942354516}, {"center_id": "28002543", "center_name": "SAN ESTEBAN", "center_type": "COLEGIO DE EDUCACIÓN INFANTIL Y PRIMARIA", "ownership": "PÚBLICO", "municipality": "Coslada", "education_area": "Madrid-Este", "utm_x": 454897.0, "utm_y": 4476625.0, "longitude": -3.5318079502325825, "latitude": 40.43904908513582}, {"center_id": "28002580", "center_name": "MIGUEL CATALÁN", "center_type": "INSTITUTO DE EDUCACIÓN SECUNDARIA", "ownership": "PÚBLICO", "municipality": "Coslada", "education_area": "Madrid-Este", "utm_x": 454090.0, "utm_y": 4475869.0, "longitude": -3.5412682436781444, "latitude": 40.43219433056663}, {"center_id": "28002609", "center_name": "NUESTRA SEÑORA DE LA SOLEDAD", "center_type": "COLEGIO DE EDUCACIÓN INFANTIL Y PRIMARIA", "ownership": "PÚBLICO", "municipality": "Cubas de la Sagra", "education_area": "Madrid-Sur", "utm_x": 429307.0, "utm_y": 4449552.0, "longitude": -3.830520411601261, "latitude": 40.193384146668315}, {"center_id": "28002646", "center_name": "HERMANOS ORTIZ DE ZARATE", "center_type": "COLEGIO DE EDUCACIÓN INFANTIL Y PRIMARIA", "ownership": "PÚBLICO", "municipality": "Chinchón", "education_area": "Madrid-Este", "utm_x": 464323.0, "utm_y": 4443101.0, "longitude": -3.418801203219269, "latitude": 40.1374855076516}, {"center_id": "28002671", "center_name": "ANGEL BERZAL FERNANDEZ", "center_type": "COLEGIO DE EDUCACIÓN INFANTIL, PRIMARIA Y SECUNDARIA", "ownership": "PÚBLICO", "municipality": "Daganzo de Arriba", "education_area": "Madrid-Este", "utm_x": 461596.0, "utm_y": 4488900.0, "longitude": -3.4535668329135123, "latitude": 40.549967832662105}, {"center_id": "28002695", "center_name": "FELIPE II", "center_type": "COLEGIO DE EDUCACIÓN PRIMARIA", "ownership": "PÚBLICO", "municipality": "Escorial, El", "education_area": "Madrid-Oeste", "utm_x": 404854.0, "utm_y": 4492927.0, "longitude": -4.124233759558477, "latitude": 40.58166605162164}, {"center_id": "28002713", "center_name": "PADRE GERARDO GIL", "center_type": "ESCUELA INFANTIL", "ownership": "PÚBLICO", "municipality": "Escorial, El", "education_area": "Madrid-Oeste", "utm_x": 404651.0, "utm_y": 4493218.0, "longitude": -4.126675926757169, "latitude": 40.58426376423983}, {"center_id": "28002737", "center_name": "CARLOS RUIZ", "center_type": "COLEGIO DE EDUCACIÓN INFANTIL Y PRIMARIA", "ownership": "PÚBLICO", "municipality": "Estremera", "education_area": "Madrid-Este", "utm_x": 490842.0, "utm_y": 4448099.0, "longitude": -3.107575224328093, "latitude": 40.18322255596284}, {"center_id": "28002804", "center_name": "SAN ESTEBAN", "center_type": "COLEGIO DE EDUCACIÓN INFANTIL Y PRIMARIA", "ownership": "PÚBLICO", "municipality": "Fuenlabrada", "education_area": "Madrid-Sur", "utm_x": 432929.0, "utm_y": 4459864.0, "longitude": -3.789049835802604, "latitude": 40.28657799488997}, {"center_id": "28002853", "center_name": "MARTINA GARCIA", "center_type": "COLEGIO DE EDUCACIÓN INFANTIL, PRIMARIA Y SECUNDARIA", "ownership": "PÚBLICO", "municipality": "Fuente el Saz de Jarama", "education_area": "Madrid-Norte", "utm_x": 456391.0, "utm_y": 4497763.0, "longitude": -3.515650707080471, "latitude": 40.62955264250868}, {"center_id": "28002865", "center_name": "ALARILLA", "center_type": "COLEGIO DE EDUCACIÓN INFANTIL Y PRIMARIA", "ownership": "PÚBLICO", "municipality": "Fuentidueña de Tajo", "education_area": "Madrid-Este", "utm_x": 486272.0, "utm_y": 4440687.0, "longitude": -3.161099103677131, "latitude": 40.11638156809646}, {"center_id": "28002877", "center_name": "CARLOS RUIZ", "center_type": "COLEGIO DE EDUCACIÓN INFANTIL Y PRIMARIA", "ownership": "PÚBLICO", "municipality": "Galapagar", "education_area": "Madrid-Oeste", "utm_x": 414831.0, "utm_y": 4492099.0, "longitude": -4.006253245668986, "latitude": 40.575294934768834}, {"center_id": "28002890", "center_name": "SAN GREGORIO", "center_type": "COLEGIO DE EDUCACIÓN INFANTIL Y PRIMARIA", "ownership": "PÚBLICO", "municipality": "Galapagar", "education_area": "Madrid-Oeste", "utm_x": 415560.0, "utm_y": 4492944.0, "longitude": -3.9977546017058088, "latitude": 40.582980995627615}, {"center_id": "28002944", "center_name": "LA ALHONDIGA", "center_type": "COLEGIO DE EDUCACIÓN INFANTIL Y PRIMARIA", "ownership": "PÚBLICO", "municipality": "Getafe", "education_area": "Madrid-Sur", "utm_x": 437305.0, "utm_y": 4462080.0, "longitude": -3.7377901258852106, "latitude": 40.30688064416973}, {"center_id": "28002956", "center_name": "ORTIZ ECHAGÜE", "center_type": "COLEGIO DE EDUCACIÓN INFANTIL Y PRIMARIA", "ownership": "PÚBLICO", "municipality": "Getafe", "education_area": "Madrid-Sur", "utm_x": 438495.0, "utm_y": 4462697.0, "longitude": -3.723846702786779, "latitude": 40.312527404588145}, {"center_id": "28002968", "center_name": "SANTA MARGARITA MARIA ALACOQUE", "center_type": "COLEGIO DE EDUCACIÓN INFANTIL Y PRIMARIA", "ownership": "PÚBLICO", "municipality": "Getafe", "education_area": "Madrid-Sur", "utm_x": 438691.0, "utm_y": 4463387.0, "longitude": -3.7216063396028143, "latitude": 40.31875774388796}, {"center_id": "28002981", "center_name": "SAGRADO CORAZON", "center_type": "COLEGIO DE EDUCACIÓN INFANTIL, PRIMARIA Y SECUNDARIA", "ownership": "PÚBLICO", "municipality": "Getafe", "education_area": "Madrid-Sur", "utm_x": 437744.0, "utm_y": 4461979.0, "longitude": -3.7326145770311867, "latitude": 40.30600360587515}, {"center_id": "28003021", "center_name": "LICEO JUAN DE LA CIERVA I", "center_type": "CENTRO PRIVADO DE EDUCACIÓN INFANTIL Y PRIMARIA", "ownership": "PRIVADO CONCERTADO", "municipality": "Getafe", "education_area": "Madrid-Sur", "utm_x": 438656.0, "utm_y": 4462559.0, "longitude": -3.7219388122824344, "latitude": 40.31129605747432}, {"center_id": "28003055", "center_name": "SCIENTIA MENGUAL", "center_type": "CENTRO PRIVADO DE EDUCACIÓN INFANTIL Y PRIMARIA", "ownership": "PRIVADO CONCERTADO", "municipality": "Getafe", "education_area": "Madrid-Sur", "utm_x": 438240.0, "utm_y": 4462212.0, "longitude": -3.7268007061970474, "latitude": 40.308139421814275}, {"center_id": "28003092", "center_name": "SANTA TERESA", "center_type": "CENTRO PRIVADO DE EDUCACIÓN INFANTIL, PRIMARIA Y SECUNDARIA", "ownership": "PRIVADO CONCERTADO", "municipality": "Getafe", "education_area": "Madrid-Sur", "utm_x": 443798.0, "utm_y": 4464296.0, "longitude": -3.6615809064327016, "latitude": 40.32730596984117}, {"center_id": "28003110", "center_name": "JESUS NAZARENO", "center_type": "CENTRO PRIVADO DE EDUCACIÓN INFANTIL, PRIMARIA Y SECUNDARIA", "ownership": "PRIVADO CONCERTADO", "municipality": "Getafe", "education_area": "Madrid-Sur", "utm_x": 438102.0, "utm_y": 4461929.0, "longitude": -3.7283971985434916, "latitude": 40.30557977616426}, {"center_id": "28003134", "center_name": "SAN JOSE", "center_type": "CENTRO PRIVADO DE EDUCACIÓN INFANTIL, PRIMARIA Y SECUNDARIA", "ownership": "PRIVADO CONCERTADO", "municipality": "Getafe", "education_area": "Madrid-Sur", "utm_x": 437914.0, "utm_y": 4462195.0, "longitude": -3.730635176880685, "latitude": 40.30796211168745}, {"center_id": "28003201", "center_name": "MATEMATICO PUIG ADAM", "center_type": "INSTITUTO DE EDUCACIÓN SECUNDARIA", "ownership": "PÚBLICO", "municipality": "Getafe", "education_area": "Madrid-Sur", "utm_x": 437479.0, "utm_y": 4461038.0, "longitude": -3.735640834961083, "latitude": 40.29750673612762}, {"center_id": "28003250", "center_name": "LA INMACULADA-PADRES ESCOLAPIOS", "center_type": "CENTRO PRIVADO DE EDUCACIÓN INFANTIL, PRIMARIA Y SECUNDARIA", "ownership": "PRIVADO CONCERTADO", "municipality": "Getafe", "education_area": "Madrid-Sur", "utm_x": 437822.0, "utm_y": 4462088.0, "longitude": -3.731707357672773, "latitude": 40.30699135061078}, {"center_id": "28003262", "center_name": "DIVINA PASTORA", "center_type": "CENTRO PRIVADO DE EDUCACIÓN INFANTIL, PRIMARIA Y SECUNDARIA", "ownership": "PRIVADO CONCERTADO", "municipality": "Getafe", "education_area": "Madrid-Sur", "utm_x": 437718.0, "utm_y": 4462327.0, "longitude": -3.7329544036967905, "latitude": 40.309136655312805}, {"center_id": "28003286", "center_name": "SESEÑA Y BENAVENTE", "center_type": "COLEGIO DE EDUCACIÓN INFANTIL Y PRIMARIA", "ownership": "PÚBLICO", "municipality": "Getafe", "education_area": "Madrid-Sur", "utm_x": 437323.0, "utm_y": 4464297.0, "longitude": -3.7377956815510975, "latitude": 40.32685397218115}, {"center_id": "28003304", "center_name": "ALARNES", "center_type": "INSTITUTO DE EDUCACIÓN SECUNDARIA", "ownership": "PÚBLICO", "municipality": "Getafe", "education_area": "Madrid-Sur", "utm_x": 437552.0, "utm_y": 4461314.0, "longitude": -3.7348088986137684, "latitude": 40.299998566110474}, {"center_id": "28003316", "center_name": "SAN JOSE DE CALASANZ", "center_type": "COLEGIO DE EDUCACIÓN INFANTIL Y PRIMARIA", "ownership": "PÚBLICO", "municipality": "Getafe", "education_area": "Madrid-Sur", "utm_x": 437921.0, "utm_y": 4462499.0, "longitude": -3.730582316052737, "latitude": 40.31070124205716}, {"center_id": "28003328", "center_name": "CIUDAD DE MADRID", "center_type": "COLEGIO DE EDUCACIÓN INFANTIL Y PRIMARIA", "ownership": "PÚBLICO", "municipality": "Getafe", "education_area": "Madrid-Sur", "utm_x": 438657.0, "utm_y": 4463275.0, "longitude": -3.721995741305082, "latitude": 40.317746285065894}, {"center_id": "28003407", "center_name": "GARCILASO DE LA VEGA", "center_type": "COLEGIO DE EDUCACIÓN INFANTIL Y PRIMARIA", "ownership": "PÚBLICO", "municipality": "Griñón", "education_area": "Madrid-Sur", "utm_x": 427458.0, "utm_y": 4451955.0, "longitude": -3.8525118588415004, "latitude": 40.21487366683501}, {"center_id": "28003419", "center_name": "LA SALLE", "center_type": "CENTRO PRIVADO DE EDUCACIÓN INFANTIL, PRIMARIA Y SECUNDARIA", "ownership": "PRIVADO CONCERTADO", "municipality": "Griñón", "education_area": "Madrid-Sur", "utm_x": 427182.0, "utm_y": 4451648.0, "longitude": -3.855720274319542, "latitude": 40.21208413582182}, {"center_id": "28003420", "center_name": "ALEJANDRO RUBIO", "center_type": "COLEGIO DE EDUCACIÓN INFANTIL Y PRIMARIA", "ownership": "PÚBLICO", "municipality": "Guadalix de la Sierra", "education_area": "Madrid-Norte", "utm_x": 441354.0, "utm_y": 4514738.0, "longitude": -3.695031432896894, "latitude": 40.78153338073352}, {"center_id": "28003444", "center_name": "COLEGIO JUAN PABLO II Y LA INMACULADA", "center_type": "CENTRO PRIVADO DE EDUCACIÓN INFANTIL, PRIMARIA Y SECUNDARIA", "ownership": "PRIVADO CONCERTADO", "municipality": "Guadarrama", "education_area": "Madrid-Oeste", "utm_x": 407756.0, "utm_y": 4503145.0, "longitude": -4.091447575936728, "latitude": 40.67403008144644}, {"center_id": "28003456", "center_name": "VILLA DE GUADARRAMA", "center_type": "COLEGIO DE EDUCACIÓN INFANTIL Y PRIMARIA", "ownership": "PÚBLICO", "municipality": "Guadarrama", "education_area": "Madrid-Oeste", "utm_x": 407945.0, "utm_y": 4502203.0, "longitude": -4.089073616424948, "latitude": 40.66556648589244}, {"center_id": "28003481", "center_name": "VIRGEN DE LA ENCINA", "center_type": "COLEGIO DE EDUCACIÓN INFANTIL Y PRIMARIA", "ownership": "PÚBLICO", "municipality": "Hoyo de Manzanares", "education_area": "Madrid-Oeste", "utm_x": 423851.0, "utm_y": 4497510.0, "longitude": -3.9003508886581093, "latitude": 40.62491496475751}, {"center_id": "28003493", "center_name": "HERMANOS TORA", "center_type": "COLEGIO DE EDUCACIÓN INFANTIL Y PRIMARIA", "ownership": "PÚBLICO", "municipality": "Humanes de Madrid", "education_area": "Madrid-Sur", "utm_x": 429401.0, "utm_y": 4455812.0, "longitude": -3.8301042133271674, "latitude": 40.24978533788163}, {"center_id": "28003501", "center_name": "CALDERON DE LA BARCA", "center_type": "COLEGIO DE EDUCACIÓN INFANTIL Y PRIMARIA", "ownership": "PÚBLICO", "municipality": "Leganés", "education_area": "Madrid-Sur", "utm_x": 434864.0, "utm_y": 4465284.0, "longitude": -3.766839767683879, "latitude": 40.33555710953359}, {"center_id": "28003523", "center_name": "LEPANTO", "center_type": "COLEGIO DE EDUCACIÓN INFANTIL Y PRIMARIA", "ownership": "PÚBLICO", "municipality": "Leganés", "education_area": "Madrid-Sur", "utm_x": 434625.0, "utm_y": 4465324.0, "longitude": -3.7696573456506215, "latitude": 40.33589876135816}, {"center_id": "28003535", "center_name": "MARQUES DE LEGANES", "center_type": "COLEGIO DE EDUCACIÓN INFANTIL Y PRIMARIA", "ownership": "PÚBLICO", "municipality": "Leganés", "education_area": "Madrid-Sur", "utm_x": 434868.0, "utm_y": 4464128.0, "longitude": -3.766674823586809, "latitude": 40.32514362021408}, {"center_id": "28003584", "center_name": "LA INMACULADA", "center_type": "CENTRO PRIVADO DE EDUCACIÓN INFANTIL, PRIMARIA Y SECUNDARIA", "ownership": "PRIVADO CONCERTADO", "municipality": "Leganés", "education_area": "Madrid-Sur", "utm_x": 434742.0, "utm_y": 4464396.0, "longitude": -3.768185225624019, "latitude": 40.327548054539776}, {"center_id": "28003675", "center_name": "LICEO SAN PABLO", "center_type": "CENTRO PRIVADO DE EDUCACIÓN INFANTIL, PRIMARIA Y SECUNDARIA", "ownership": "PRIVADO CONCERTADO", "municipality": "Leganés", "education_area": "Madrid-Sur", "utm_x": 435378.0, "utm_y": 4464388.0, "longitude": -3.7606983640969096, "latitude": 40.32752545936934}, {"center_id": "28003742", "center_name": "EL SALVADOR", "center_type": "CENTRO PRIVADO DE EDUCACIÓN INFANTIL, PRIMARIA Y SECUNDARIA", "ownership": "PRIVADO CONCERTADO", "municipality": "Leganés", "education_area": "Madrid-Sur", "utm_x": 435459.0, "utm_y": 4464671.0, "longitude": -3.75977353985936, "latitude": 40.33008112968438}, {"center_id": "28003778", "center_name": "GONZALO DE BERCEO", "center_type": "COLEGIO DE EDUCACIÓN INFANTIL Y PRIMARIA", "ownership": "PÚBLICO", "municipality": "Leganés", "education_area": "Madrid-Sur", "utm_x": 433825.0, "utm_y": 4468053.0, "longitude": -3.779357828574361, "latitude": 40.3604197033657}, {"center_id": "28003791", "center_name": "VICTOR PRADERA", "center_type": "COLEGIO DE EDUCACIÓN INFANTIL, PRIMARIA Y SECUNDARIA", "ownership": "PÚBLICO", "municipality": "Leganés", "education_area": "Madrid-Sur", "utm_x": 435943.0, "utm_y": 4465590.0, "longitude": -3.754168550063297, "latitude": 40.33839722115179}, {"center_id": "28003833", "center_name": "MIGUEL DE CERVANTES", "center_type": "COLEGIO DE EDUCACIÓN INFANTIL Y PRIMARIA", "ownership": "PÚBLICO", "municipality": "Leganés", "education_area": "Madrid-Sur", "utm_x": 433962.0, "utm_y": 4464827.0, "longitude": -3.7774107582669325, "latitude": 40.33136936425845}, {"center_id": "28003845", "center_name": "ORTEGA Y GASSET", "center_type": "COLEGIO DE EDUCACIÓN INFANTIL Y PRIMARIA", "ownership": "PÚBLICO", "municipality": "Leganés", "education_area": "Madrid-Sur", "utm_x": 436100.0, "utm_y": 4464616.0, "longitude": -3.752222836817228, "latitude": 40.329634975362964}, {"center_id": "28003857", "center_name": "ABEN HAZAM", "center_type": "COLEGIO DE EDUCACIÓN INFANTIL Y PRIMARIA", "ownership": "PÚBLICO", "municipality": "Leganés", "education_area": "Madrid-Sur", "utm_x": 436186.0, "utm_y": 4464893.0, "longitude": -3.7512382080365234, "latitude": 40.332136911363214}, {"center_id": "28003882", "center_name": "JOSE DE CHURRIGUERA", "center_type": "INSTITUTO DE EDUCACIÓN SECUNDARIA", "ownership": "PÚBLICO", "municipality": "Leganés", "education_area": "Madrid-Sur", "utm_x": 435250.0, "utm_y": 4463907.0, "longitude": -3.7621562517872777, "latitude": 40.32318245487661}, {"center_id": "28003894", "center_name": "LUIS VIVES", "center_type": "INSTITUTO DE EDUCACIÓN SECUNDARIA", "ownership": "PÚBLICO", "municipality": "Leganés", "education_area": "Madrid-Sur", "utm_x": 435027.0, "utm_y": 4465668.0, "longitude": -3.764960014420691, "latitude": 40.33902906794308}, {"center_id": "28003900", "center_name": "MARIA ZAMBRANO", "center_type": "INSTITUTO DE EDUCACIÓN SECUNDARIA", "ownership": "PÚBLICO", "municipality": "Leganés", "education_area": "Madrid-Sur", "utm_x": 436494.0, "utm_y": 4464717.0, "longitude": -3.7475951331110697, "latitude": 40.330574902461336}, {"center_id": "28003961", "center_name": "DUQUE DE ALBA", "center_type": "COLEGIO DE EDUCACIÓN INFANTIL Y PRIMARIA", "ownership": "PÚBLICO", "municipality": "Loeches", "education_area": "Madrid-Este", "utm_x": 464936.0, "utm_y": 4470044.0, "longitude": -3.4130791255032866, "latitude": 40.38024524171818}, {"center_id": "28003973", "center_name": "MONTFORT INTERNATIONAL SCHOOL", "center_type": "CENTRO PRIVADO DE EDUCACIÓN PRIMARIA Y SECUNDARIA", "ownership": "PRIVADO", "municipality": "Loeches", "education_area": "Madrid-Este", "utm_x": 464331.0, "utm_y": 4471265.0, "longitude": -3.4202746434875184, "latitude": 40.39121950146895}, {"center_id": "28004059", "center_name": "CERVANTES", "center_type": "INSTITUTO DE EDUCACIÓN SECUNDARIA", "ownership": "PÚBLICO", "municipality": "Madrid", "education_area": "Madrid-Capital", "utm_x": 440331.0, "utm_y": 4473049.0, "longitude": -3.703208840560079, "latitude": 40.40591722304497}, {"center_id": "28004266", "center_name": "DAMASO ALONSO", "center_type": "COLEGIO DE EDUCACIÓN INFANTIL Y PRIMARIA", "ownership": "PÚBLICO", "municipality": "Madrid", "education_area": "Madrid-Capital", "utm_x": 439803.0, "utm_y": 4466409.0, "longitude": -3.708803852897108, "latitude": 40.346062610928506}, {"center_id": "28004291", "center_name": "CERVANTES BABY", "center_type": "ESCUELA INFANTIL PRIVADA", "ownership": "PRIVADO", "municipality": "Madrid", "education_area": "Madrid-Capital", "utm_x": 438033.0, "utm_y": 4470660.0, "longitude": -3.730056615886864, "latitude": 40.38422815782422}, {"center_id": "28004436", "center_name": "FRANCISCO ALCANTARA CERAMICA", "center_type": "ESCUELA DE ARTE", "ownership": "PÚBLICO", "municipality": "Madrid", "education_area": "Madrid-Capital", "utm_x": 438560.0, "utm_y": 4475376.0, "longitude": -3.7243035653344263, "latitude": 40.426751031124525}, {"center_id": "28004552", "center_name": "ISAAC ALBENIZ", "center_type": "COLEGIO DE EDUCACIÓN INFANTIL Y PRIMARIA", "ownership": "PÚBLICO", "municipality": "Madrid", "education_area": "Madrid-Capital", "utm_x": 443282.0, "utm_y": 4479541.0, "longitude": -3.6690125439029457, "latitude": 40.464606730366974}, {"center_id": "28004904", "center_name": "CIUDAD DE JAEN", "center_type": "COLEGIO DE EDUCACIÓN INFANTIL Y PRIMARIA", "ownership": "PÚBLICO", "municipality": "Madrid", "education_area": "Madrid-Capital", "utm_x": 440505.0, "utm_y": 4469336.0, "longitude": -3.700811559915262, "latitude": 40.37248104253188}, {"center_id": "28004941", "center_name": "VASCO NUÑEZ DE BALBOA", "center_type": "COLEGIO DE EDUCACIÓN INFANTIL Y PRIMARIA", "ownership": "PÚBLICO", "municipality": "Madrid", "education_area": "Madrid-Capital", "utm_x": 441845.0, "utm_y": 4483434.0, "longitude": -3.6863185106829888, "latitude": 40.49957709980069}, {"center_id": "28004965", "center_name": "ESCUELAS AGUIRRE", "center_type": "COLEGIO DE EDUCACIÓN INFANTIL Y PRIMARIA", "ownership": "PÚBLICO", "municipality": "Madrid", "education_area": "Madrid-Capital", "utm_x": 442775.0, "utm_y": 4473992.0, "longitude": -3.6744926458016494, "latitude": 40.41458385059369}, {"center_id": "28004989", "center_name": "AGUSTINA DIEZ", "center_type": "COLEGIO DE EDUCACIÓN INFANTIL Y PRIMARIA", "ownership": "PÚBLICO", "municipality": "Madrid", "education_area": "Madrid-Capital", "utm_x": 445063.0, "utm_y": 4471051.0, "longitude": -3.6472725814270657, "latitude": 40.388243729405936}, {"center_id": "28004990", "center_name": "ALBERTO ALCOCER", "center_type": "COLEGIO DE EDUCACIÓN INFANTIL, PRIMARIA Y SECUNDARIA", "ownership": "PÚBLICO", "municipality": "Madrid", "education_area": "Madrid-Capital", "utm_x": 448088.0, "utm_y": 4475961.0, "longitude": -3.612034336551112, "latitude": 40.43267018391249}, {"center_id": "28005003", "center_name": "ALFONSO X EL SABIO", "center_type": "COLEGIO DE EDUCACIÓN INFANTIL Y PRIMARIA", "ownership": "PÚBLICO", "municipality": "Madrid", "education_area": "Madrid-Capital", "utm_x": 448773.0, "utm_y": 4472685.0, "longitude": -3.603694873361678, "latitude": 40.40320032067059}, {"center_id": "28005039", "center_name": "ANTONIO MACHADO", "center_type": "COLEGIO DE EDUCACIÓN INFANTIL Y PRIMARIA", "ownership": "PÚBLICO", "municipality": "Madrid", "education_area": "Madrid-Capital", "utm_x": 435939.0, "utm_y": 4468798.0, "longitude": -3.7545376866829665, "latitude": 40.36729608426156}, {"center_id": "28005076", "center_name": "DE PRACTICAS ASUNCION RINCON", "center_type": "COLEGIO DE EDUCACIÓN INFANTIL Y PRIMARIA", "ownership": "PÚBLICO", "municipality": "Madrid", "education_area": "Madrid-Capital", "utm_x": 439709.0, "utm_y": 4476841.0, "longitude": -3.710898212675365, "latitude": 40.44003244584342}, {"center_id": "28005091", "center_name": "AZORIN", "center_type": "COLEGIO DE EDUCACIÓN INFANTIL Y PRIMARIA", "ownership": "PÚBLICO", "municipality": "Madrid", "education_area": "Madrid-Capital", "utm_x": 441673.0, "utm_y": 4466065.0, "longitude": -3.6867551874677, "latitude": 40.34309647829591}, {"center_id": "28005106", "center_name": "BARCELONA", "center_type": "COLEGIO DE EDUCACIÓN INFANTIL Y PRIMARIA", "ownership": "PÚBLICO", "municipality": "Madrid", "education_area": "Madrid-Capital", "utm_x": 440876.0, "utm_y": 4467767.0, "longitude": -3.6962962700218056, "latitude": 40.35837300191544}, {"center_id": "28005131", "center_name": "BEATA MARIA ANA DE JESUS", "center_type": "CENTRO PRIVADO DE EDUCACIÓN INFANTIL, PRIMARIA Y SECUNDARIA", "ownership": "PRIVADO CONCERTADO", "municipality": "Madrid", "education_area": "Madrid-Capital", "utm_x": 440841.0, "utm_y": 4471725.0, "longitude": -3.6970757969702386, "latitude": 40.394026351727895}, {"center_id": "28005155", "center_name": "BOLIVIA", "center_type": "COLEGIO DE EDUCACIÓN INFANTIL Y PRIMARIA", "ownership": "PÚBLICO", "municipality": "Madrid", "education_area": "Madrid-Capital", "utm_x": 436359.0, "utm_y": 4473264.0, "longitude": -3.7500373199971455, "latitude": 40.40755987754362}, {"center_id": "28005167", "center_name": "ESCUELAS BOSQUE", "center_type": "COLEGIO DE EDUCACIÓN INFANTIL Y PRIMARIA", "ownership": "PÚBLICO", "municipality": "Madrid", "education_area": "Madrid-Capital", "utm_x": 439610.0, "utm_y": 4478984.0, "longitude": -3.712269239573578, "latitude": 40.45933027024003}, {"center_id": "28005179", "center_name": "CAPITAN CORTES", "center_type": "COLEGIO DE EDUCACIÓN INFANTIL Y PRIMARIA", "ownership": "PÚBLICO", "municipality": "Madrid", "education_area": "Madrid-Capital", "utm_x": 436942.0, "utm_y": 4470295.0, "longitude": -3.742872961382557, "latitude": 40.38085821812908}, {"center_id": "28005210", "center_name": "CERVANTES", "center_type": "COLEGIO DE EDUCACIÓN INFANTIL Y PRIMARIA", "ownership": "PÚBLICO", "municipality": "Madrid", "education_area": "Madrid-Capital", "utm_x": 440376.0, "utm_y": 4477564.0, "longitude": -3.703101963837138, "latitude": 40.44659363473862}, {"center_id": "28005234", "center_name": "CIUDAD DE LOS ANGELES", "center_type": "COLEGIO DE EDUCACIÓN INFANTIL Y PRIMARIA", "ownership": "PÚBLICO", "municipality": "Madrid", "education_area": "Madrid-Capital", "utm_x": 440891.0, "utm_y": 4467464.0, "longitude": -3.6960915567499213, "latitude": 40.35564446574101}, {"center_id": "28005246", "center_name": "CIUDAD PEGASO", "center_type": "COLEGIO DE EDUCACIÓN INFANTIL Y PRIMARIA", "ownership": "PÚBLICO", "municipality": "Madrid", "education_area": "Madrid-Capital", "utm_x": 449285.0, "utm_y": 4477571.0, "longitude": -3.5980511471887358, "latitude": 40.44724791578174}, {"center_id": "28005258", "center_name": "CLAUDIO MOYANO", "center_type": "COLEGIO DE EDUCACIÓN INFANTIL Y PRIMARIA", "ownership": "PÚBLICO", "municipality": "Madrid", "education_area": "Madrid-Capital", "utm_x": 439882.0, "utm_y": 4476725.0, "longitude": -3.7088475218894437, "latitude": 40.43899999382835}, {"center_id": "28005261", "center_name": "CONDE DE ROMANONES", "center_type": "COLEGIO DE EDUCACIÓN INFANTIL Y PRIMARIA", "ownership": "PÚBLICO", "municipality": "Madrid", "education_area": "Madrid-Capital", "utm_x": 445512.0, "utm_y": 4476509.0, "longitude": -3.6424501898918593, "latitude": 40.43744210890257}, {"center_id": "28005271", "center_name": "CRISTOBAL COLON", "center_type": "COLEGIO DE EDUCACIÓN INFANTIL Y PRIMARIA", "ownership": "PÚBLICO", "municipality": "Madrid", "education_area": "Madrid-Capital", "utm_x": 440043.0, "utm_y": 4466898.0, "longitude": -3.7060240545131706, "latitude": 40.350485085790496}, {"center_id": "28005295", "center_name": "DIVINO CORAZON", "center_type": "CENTRO PRIVADO DE EDUCACIÓN INFANTIL, PRIMARIA Y SECUNDARIA", "ownership": "PRIVADO CONCERTADO", "municipality": "Madrid", "education_area": "Madrid-Capital", "utm_x": 440603.0, "utm_y": 4480012.0, "longitude": -3.700654369888715, "latitude": 40.46866248018097}, {"center_id": "28005349", "center_name": "EMILIA PARDO BAZAN", "center_type": "COLEGIO DE EDUCACIÓN INFANTIL Y PRIMARIA", "ownership": "PÚBLICO", "municipality": "Madrid", "education_area": "Madrid-Capital", "utm_x": 440135.0, "utm_y": 4473147.0, "longitude": -3.7055277849562342, "latitude": 40.406785983886834}, {"center_id": "28005350", "center_name": "FRANCISCO FATOU", "center_type": "COLEGIO DE EDUCACIÓN INFANTIL Y PRIMARIA", "ownership": "PÚBLICO", "municipality": "Madrid", "education_area": "Madrid-Capital", "utm_x": 447506.0, "utm_y": 4469675.0, "longitude": -3.6183772061168757, "latitude": 40.376005311215714}, {"center_id": "28005374", "center_name": "FRANCISCO DE QUEVEDO", "center_type": "COLEGIO DE EDUCACIÓN INFANTIL Y PRIMARIA", "ownership": "PÚBLICO", "municipality": "Madrid", "education_area": "Madrid-Capital", "utm_x": 442352.0, "utm_y": 4472900.0, "longitude": -3.6793791474471207, "latitude": 40.40471734593979}, {"center_id": "28005386", "center_name": "FRANCISCO RUANO", "center_type": "COLEGIO DE EDUCACIÓN INFANTIL Y PRIMARIA", "ownership": "PÚBLICO", "municipality": "Madrid", "education_area": "Madrid-Capital", "utm_x": 442826.0, "utm_y": 4470163.0, "longitude": -3.673547732985384, "latitude": 40.38009358555832}, {"center_id": "28005404", "center_name": "FRAY JUNIPERO SERRA", "center_type": "COLEGIO DE EDUCACIÓN INFANTIL Y PRIMARIA", "ownership": "PÚBLICO", "municipality": "Madrid", "education_area": "Madrid-Capital", "utm_x": 444140.0, "utm_y": 4471868.0, "longitude": -3.658218432537782, "latitude": 40.39554237194525}, {"center_id": "28005428", "center_name": "FRAY PEDRO PONCE DE LEON", "center_type": "COLEGIO DE EDUCACIÓN ESPECIAL", "ownership": "PÚBLICO", "municipality": "Madrid", "education_area": "Madrid-Capital", "utm_x": 436113.0, "utm_y": 4471731.0, "longitude": -3.7527824561055785, "latitude": 40.39373116138199}, {"center_id": "28005431", "center_name": "REINA VICTORIA", "center_type": "COLEGIO DE EDUCACIÓN INFANTIL Y PRIMARIA", "ownership": "PÚBLICO", "municipality": "Madrid", "education_area": "Madrid-Capital", "utm_x": 442350.0, "utm_y": 4476086.0, "longitude": -3.679691504090486, "latitude": 40.433418331728646}, {"center_id": "28005441", "center_name": "GONZALO FERNANDEZ DE CORDOBA", "center_type": "COLEGIO DE EDUCACIÓN INFANTIL Y PRIMARIA", "ownership": "PÚBLICO", "municipality": "Madrid", "education_area": "Madrid-Capital", "utm_x": 433838.0, "utm_y": 4471803.0, "longitude": -3.7795940181478644, "latitude": 40.3942021542684}, {"center_id": "28005465", "center_name": "GUSTAVO ADOLFO BECQUER", "center_type": "COLEGIO DE EDUCACIÓN INFANTIL Y PRIMARIA", "ownership": "PÚBLICO", "municipality": "Madrid", "education_area": "Madrid-Capital", "utm_x": 444942.0, "utm_y": 4475022.0, "longitude": -3.6490416651081046, "latitude": 40.42400885141856}, {"center_id": "28005477", "center_name": "HAITI", "center_type": "COLEGIO DE EDUCACIÓN INFANTIL Y PRIMARIA", "ownership": "PÚBLICO", "municipality": "Madrid", "education_area": "Madrid-Capital", "utm_x": 436658.0, "utm_y": 4470876.0, "longitude": -3.7462761966328255, "latitude": 40.38607058084157}, {"center_id": "28005489", "center_name": "HERMANOS PINZON", "center_type": "COLEGIO DE EDUCACIÓN INFANTIL Y PRIMARIA", "ownership": "PÚBLICO", "municipality": "Madrid", "education_area": "Madrid-Capital", "utm_x": 434760.0, "utm_y": 4472285.0, "longitude": -3.7687803114360823, "latitude": 40.39861691977478}, {"center_id": "28005490", "center_name": "HERNAN CORTES", "center_type": "COLEGIO DE EDUCACIÓN INFANTIL Y PRIMARIA", "ownership": "PÚBLICO", "municipality": "Madrid", "education_area": "Madrid-Capital", "utm_x": 436261.0, "utm_y": 4471447.0, "longitude": -3.751010286402977, "latitude": 40.391184110741534}, {"center_id": "28005519", "center_name": "HONDURAS", "center_type": "COLEGIO DE EDUCACIÓN INFANTIL Y PRIMARIA", "ownership": "PÚBLICO", "municipality": "Madrid", "education_area": "Madrid-Capital", "utm_x": 447307.0, "utm_y": 4469869.0, "longitude": -3.620737326780294, "latitude": 40.377740437879744}, {"center_id": "28005520", "center_name": "HOSPITAL DEL NIÑO JESUS", "center_type": "AULA HOSPITALARIA", "ownership": "PÚBLICO", "municipality": "Madrid", "education_area": "Madrid-Capital", "utm_x": 442574.0, "utm_y": 4473916.0, "longitude": -3.6768547511317666, "latitude": 40.413885358277035}, {"center_id": "28005556", "center_name": "MARIA SORIANO", "center_type": "COLEGIO DE EDUCACIÓN ESPECIAL", "ownership": "PÚBLICO", "municipality": "Madrid", "education_area": "Madrid-Capital", "utm_x": 435334.0, "utm_y": 4468284.0, "longitude": -3.761610921221047, "latitude": 40.36261903967842}, {"center_id": "28005568", "center_name": "ISAAC PERAL", "center_type": "COLEGIO DE EDUCACIÓN INFANTIL Y PRIMARIA", "ownership": "PÚBLICO", "municipality": "Madrid", "education_area": "Madrid-Capital", "utm_x": 437969.0, "utm_y": 4470894.0, "longitude": -3.730833349508682, "latitude": 40.38633137666864}, {"center_id": "28005571", "center_name": "LUIS BELLO", "center_type": "COLEGIO DE EDUCACIÓN INFANTIL Y PRIMARIA", "ownership": "PÚBLICO", "municipality": "Madrid", "education_area": "Madrid-Capital", "utm_x": 442886.0, "utm_y": 4477222.0, "longitude": -3.673474611354807, "latitude": 40.443688960550965}, {"center_id": "28005601", "center_name": "JAIME BALMES", "center_type": "COLEGIO DE EDUCACIÓN INFANTIL Y PRIMARIA", "ownership": "PÚBLICO", "municipality": "Madrid", "education_area": "Madrid-Capital", "utm_x": 443061.0, "utm_y": 4471026.0, "longitude": -3.670856581460846, "latitude": 40.387884084776466}, {"center_id": "28005623", "center_name": "JAVIER DE MIGUEL", "center_type": "COLEGIO DE EDUCACIÓN INFANTIL Y PRIMARIA", "ownership": "PÚBLICO", "municipality": "Madrid", "education_area": "Madrid-Capital", "utm_x": 444277.0, "utm_y": 4470688.0, "longitude": -3.65650097859543, "latitude": 40.38492140044288}, {"center_id": "28005635", "center_name": "JOAQUIN DICENTA", "center_type": "COLEGIO DE EDUCACIÓN INFANTIL Y PRIMARIA", "ownership": "PÚBLICO", "municipality": "Madrid", "education_area": "Madrid-Capital", "utm_x": 437374.0, "utm_y": 4473045.0, "longitude": -3.7380544944324017, "latitude": 40.4056640079617}, {"center_id": "28005660", "center_name": "JOSE MARIA DE PEREDA", "center_type": "COLEGIO DE EDUCACIÓN INFANTIL Y PRIMARIA", "ownership": "PÚBLICO", "municipality": "Madrid", "education_area": "Madrid-Capital", "utm_x": 442708.0, "utm_y": 4470349.0, "longitude": -3.6749544829998673, "latitude": 40.38176107718973}, {"center_id": "28005684", "center_name": "JOVELLANOS", "center_type": "COLEGIO DE EDUCACIÓN INFANTIL Y PRIMARIA", "ownership": "PÚBLICO", "municipality": "Madrid", "education_area": "Madrid-Capital", "utm_x": 433511.0, "utm_y": 4470129.0, "longitude": -3.7832720389049728, "latitude": 40.37909612729159}, {"center_id": "28005696", "center_name": "JUAN DE LA CIERVA", "center_type": "COLEGIO DE EDUCACIÓN INFANTIL Y PRIMARIA", "ownership": "PÚBLICO", "municipality": "Madrid", "education_area": "Madrid-Capital", "utm_x": 441372.0, "utm_y": 4467322.0, "longitude": -3.690414449312364, "latitude": 40.354399196816495}, {"center_id": "28005714", "center_name": "JUAN RAMON JIMENEZ", "center_type": "COLEGIO DE EDUCACIÓN INFANTIL Y PRIMARIA", "ownership": "PÚBLICO", "municipality": "Madrid", "education_area": "Madrid-Capital", "utm_x": 440384.0, "utm_y": 4479419.0, "longitude": -3.7031818217000865, "latitude": 40.463304814049486}, {"center_id": "28005726", "center_name": "JUAN SEBASTIAN ELCANO", "center_type": "COLEGIO DE EDUCACIÓN INFANTIL Y PRIMARIA", "ownership": "PÚBLICO", "municipality": "Madrid", "education_area": "Madrid-Capital", "utm_x": 440188.0, "utm_y": 4471181.0, "longitude": -3.7047185172583212, "latitude": 40.389079085280706}, {"center_id": "28005738", "center_name": "LOPEZ VICUÑA", "center_type": "CENTRO PRIVADO DE EDUCACIÓN INFANTIL, PRIMARIA Y SECUNDARIA", "ownership": "PRIVADO CONCERTADO", "municipality": "Madrid", "education_area": "Madrid-Capital", "utm_x": 448004.0, "utm_y": 4475912.0, "longitude": -3.6130206210370432, "latitude": 40.432223515058745}, {"center_id": "28005741", "center_name": "LUIS DE GONGORA", "center_type": "COLEGIO DE EDUCACIÓN INFANTIL Y PRIMARIA", "ownership": "PÚBLICO", "municipality": "Madrid", "education_area": "Madrid-Capital", "utm_x": 439430.0, "utm_y": 4480681.0, "longitude": -3.7145540913863693, "latitude": 40.47460437644662}, {"center_id": "28005763", "center_name": "MANUEL DE FALLA", "center_type": "COLEGIO DE EDUCACIÓN INFANTIL Y PRIMARIA", "ownership": "PÚBLICO", "municipality": "Madrid", "education_area": "Madrid-Capital", "utm_x": 440048.0, "utm_y": 4466436.0, "longitude": -3.705921786001304, "latitude": 40.34632348410554}, {"center_id": "28005787", "center_name": "COLEGIO DIOCESANO MARIA INMACULADA - MOGAMBO", "center_type": "CENTRO PRIVADO DE EDUCACIÓN INFANTIL, PRIMARIA Y SECUNDARIA", "ownership": "PRIVADO CONCERTADO", "municipality": "Madrid", "education_area": "Madrid-Capital", "utm_x": 444253.0, "utm_y": 4470123.0, "longitude": -3.6567342853381835, "latitude": 40.37982992868837}, {"center_id": "28005799", "center_name": "COLEGIO DIOCESANO MARIA INMACULADA - JOAQUIN TURINA", "center_type": "CENTRO PRIVADO DE EDUCACIÓN INFANTIL, PRIMARIA Y SECUNDARIA", "ownership": "PRIVADO CONCERTADO", "municipality": "Madrid", "education_area": "Madrid-Capital", "utm_x": 435637.0, "utm_y": 4469345.0, "longitude": -3.758149694768748, "latitude": 40.37220043747739}, {"center_id": "28005805", "center_name": "COLEGIO DIOCESANO MARIA INMACULADA - LUIS RUIZ", "center_type": "CENTRO PRIVADO DE EDUCACIÓN INFANTIL", "ownership": "PRIVADO CONCERTADO", "municipality": "Madrid", "education_area": "Madrid-Capital", "utm_x": 445804.0, "utm_y": 4475839.0, "longitude": -3.6389503807016905, "latitude": 40.43142545241753}, {"center_id": "28005817", "center_name": "JORGE MANRIQUE", "center_type": "COLEGIO DE EDUCACIÓN INFANTIL Y PRIMARIA", "ownership": "PÚBLICO", "municipality": "Madrid", "education_area": "Madrid-Capital", "utm_x": 439698.0, "utm_y": 4471109.0, "longitude": -3.7104845728780953, "latitude": 40.388395146917695}, {"center_id": "28005830", "center_name": "MARQUES DE MARCENADO", "center_type": "COLEGIO DE EDUCACIÓN INFANTIL Y PRIMARIA", "ownership": "PÚBLICO", "municipality": "Madrid", "education_area": "Madrid-Capital", "utm_x": 438888.0, "utm_y": 4473586.0, "longitude": -3.7202651406411382, "latitude": 40.410650090295846}, {"center_id": "28005842", "center_name": "MATER AMABILIS", "center_type": "CENTRO PRIVADO DE EDUCACIÓN INFANTIL, PRIMARIA Y SECUNDARIA", "ownership": "PRIVADO CONCERTADO", "municipality": "Madrid", "education_area": "Madrid-Capital", "utm_x": 447426.0, "utm_y": 4470002.0, "longitude": -3.619346525049364, "latitude": 40.37894610878575}, {"center_id": "28005854", "center_name": "AMOS ACERO", "center_type": "COLEGIO DE EDUCACIÓN INFANTIL Y PRIMARIA", "ownership": "PÚBLICO", "municipality": "Madrid", "education_area": "Madrid-Capital", "utm_x": 443634.0, "utm_y": 4471227.0, "longitude": -3.6641237011718384, "latitude": 40.38973377806113}, {"center_id": "28005866", "center_name": "MEJICO", "center_type": "COLEGIO DE EDUCACIÓN INFANTIL, PRIMARIA Y SECUNDARIA", "ownership": "PÚBLICO", "municipality": "Madrid", "education_area": "Madrid-Capital", "utm_x": 444811.0, "utm_y": 4477184.0, "longitude": -3.6507735841813633, "latitude": 40.4434766431597}, {"center_id": "28005878", "center_name": "MENDEZ NUNEZ", "center_type": "COLEGIO DE EDUCACIÓN INFANTIL Y PRIMARIA", "ownership": "PÚBLICO", "municipality": "Madrid", "education_area": "Madrid-Capital", "utm_x": 444080.0, "utm_y": 4481129.0, "longitude": -3.659740387325479, "latitude": 40.47896627121354}, {"center_id": "28005881", "center_name": "MENENDEZ Y PELAYO", "center_type": "COLEGIO DE EDUCACIÓN INFANTIL Y PRIMARIA", "ownership": "PÚBLICO", "municipality": "Madrid", "education_area": "Madrid-Capital", "utm_x": 441323.0, "utm_y": 4473009.0, "longitude": -3.6915150861313997, "latitude": 40.40562738935903}, {"center_id": "28005891", "center_name": "MENENDEZ PIDAL", "center_type": "COLEGIO DE EDUCACIÓN INFANTIL Y PRIMARIA", "ownership": "PÚBLICO", "municipality": "Madrid", "education_area": "Madrid-Capital", "utm_x": 445593.0, "utm_y": 4472410.0, "longitude": -3.64114455796659, "latitude": 40.400521229794336}, {"center_id": "28005908", "center_name": "MESONERO ROMANOS", "center_type": "COLEGIO DE EDUCACIÓN INFANTIL Y PRIMARIA", "ownership": "PÚBLICO", "municipality": "Madrid", "education_area": "Madrid-Capital", "utm_x": 445284.0, "utm_y": 4471629.0, "longitude": -3.6447185516327525, "latitude": 40.39346525730337}, {"center_id": "28005911", "center_name": "NAVAS DE TOLOSA", "center_type": "COLEGIO DE EDUCACIÓN INFANTIL Y PRIMARIA", "ownership": "PÚBLICO", "municipality": "Madrid", "education_area": "Madrid-Capital", "utm_x": 441717.0, "utm_y": 4466223.0, "longitude": -3.6862515811571983, "latitude": 40.34452291468303}, {"center_id": "28005933", "center_name": "EDUARDO ROJO", "center_type": "COLEGIO DE EDUCACIÓN INFANTIL Y PRIMARIA", "ownership": "PÚBLICO", "municipality": "Madrid", "education_area": "Madrid-Capital", "utm_x": 443733.0, "utm_y": 4470902.0, "longitude": -3.66292861508817, "latitude": 40.38681267853535}, {"center_id": "28005945", "center_name": "NUESTRA SEÑORA DE LA CONCEPCION", "center_type": "COLEGIO DE EDUCACIÓN INFANTIL Y PRIMARIA", "ownership": "PÚBLICO", "municipality": "Madrid", "education_area": "Madrid-Capital", "utm_x": 444878.0, "utm_y": 4476485.0, "longitude": -3.6499229410232874, "latitude": 40.43718412218422}, {"center_id": "28005994", "center_name": "PADRE COLOMA", "center_type": "COLEGIO DE EDUCACIÓN INFANTIL Y PRIMARIA", "ownership": "PÚBLICO", "municipality": "Madrid", "education_area": "Madrid-Capital", "utm_x": 447831.0, "utm_y": 4477751.0, "longitude": -3.615211146126581, "latitude": 40.448779488137454}, {"center_id": "28006007", "center_name": "PADRE MARIANA", "center_type": "COLEGIO DE EDUCACIÓN INFANTIL Y PRIMARIA", "ownership": "PÚBLICO", "municipality": "Madrid", "education_area": "Madrid-Capital", "utm_x": 443061.0, "utm_y": 4469837.0, "longitude": -3.670750330851498, "latitude": 40.377172874922884}, {"center_id": "28006019", "center_name": "PADRE PIQUER", "center_type": "CENTRO PRIVADO DE EDUCACIÓN SECUNDARIA", "ownership": "PRIVADO CONCERTADO", "municipality": "Madrid", "education_area": "Madrid-Capital", "utm_x": 441378.0, "utm_y": 4480325.0, "longitude": -3.6915419334020454, "latitude": 40.471537165287224}, {"center_id": "28006020", "center_name": "PADRE POVEDA", "center_type": "COLEGIO DE EDUCACIÓN INFANTIL Y PRIMARIA", "ownership": "PÚBLICO", "municipality": "Madrid", "education_area": "Madrid-Capital", "utm_x": 443375.0, "utm_y": 4478049.0, "longitude": -3.66778254725871, "latitude": 40.45117242995803}, {"center_id": "28006044", "center_name": "PARQUE ALUCHE", "center_type": "COLEGIO DE EDUCACIÓN INFANTIL, PRIMARIA Y SECUNDARIA", "ownership": "PÚBLICO", "municipality": "Madrid", "education_area": "Madrid-Capital", "utm_x": 435427.0, "utm_y": 4471473.0, "longitude": -3.760838783512068, "latitude": 40.391354094148305}, {"center_id": "28006056", "center_name": "PERU", "center_type": "COLEGIO DE EDUCACIÓN INFANTIL Y PRIMARIA", "ownership": "PÚBLICO", "municipality": "Madrid", "education_area": "Madrid-Capital", "utm_x": 439464.0, "utm_y": 4471766.0, "longitude": -3.7133038302383308, "latitude": 40.394296755017855}, {"center_id": "28006068", "center_name": "PINAR DEL REY", "center_type": "COLEGIO DE EDUCACIÓN INFANTIL Y PRIMARIA", "ownership": "PÚBLICO", "municipality": "Madrid", "education_area": "Madrid-Capital", "utm_x": 444546.0, "utm_y": 4480307.0, "longitude": -3.654171019700787, "latitude": 40.47159255714446}, {"center_id": "28006071", "center_name": "PIO XII", "center_type": "COLEGIO DE EDUCACIÓN INFANTIL Y PRIMARIA", "ownership": "PÚBLICO", "municipality": "Madrid", "education_area": "Madrid-Capital", "utm_x": 441181.0, "utm_y": 4479816.0, "longitude": -3.6938185164695376, "latitude": 40.46693795870546}, {"center_id": "28006101", "center_name": "PUERTO RICO", "center_type": "COLEGIO DE EDUCACIÓN INFANTIL Y PRIMARIA", "ownership": "PÚBLICO", "municipality": "Madrid", "education_area": "Madrid-Capital", "utm_x": 438896.0, "utm_y": 4468846.0, "longitude": -3.719716150973681, "latitude": 40.36795047122808}, {"center_id": "28006111", "center_name": "GONZALO DE BERCEO", "center_type": "COLEGIO DE EDUCACIÓN INFANTIL Y PRIMARIA", "ownership": "PÚBLICO", "municipality": "Madrid", "education_area": "Madrid-Capital", "utm_x": 438613.0, "utm_y": 4470497.0, "longitude": -3.7232082310017987, "latitude": 40.38280271010874}, {"center_id": "28006123", "center_name": "RAMIRO DE MAEZTU", "center_type": "COLEGIO DE EDUCACIÓN INFANTIL Y PRIMARIA", "ownership": "PÚBLICO", "municipality": "Madrid", "education_area": "Madrid-Capital", "utm_x": 441808.0, "utm_y": 4477079.0, "longitude": -3.68617217290608, "latitude": 40.442326000089146}, {"center_id": "28006135", "center_name": "REGIMIENTO INMEMORIAL DEL REY", "center_type": "COLEGIO DE EDUCACIÓN INFANTIL Y PRIMARIA", "ownership": "PÚBLICO", "municipality": "Madrid", "education_area": "Madrid-Capital", "utm_x": 444233.0, "utm_y": 4473169.0, "longitude": -3.657236622486223, "latitude": 40.40726876999233}, {"center_id": "28006159", "center_name": "REPUBLICA DEL BRASIL", "center_type": "COLEGIO DE EDUCACIÓN INFANTIL Y PRIMARIA", "ownership": "PÚBLICO", "municipality": "Madrid", "education_area": "Madrid-Capital", "utm_x": 441465.0, "utm_y": 4469078.0, "longitude": -3.689480492257684, "latitude": 40.370224801931585}, {"center_id": "28006160", "center_name": "REPUBLICA DOMINICANA", "center_type": "COLEGIO DE EDUCACIÓN INFANTIL Y PRIMARIA", "ownership": "PÚBLICO", "municipality": "Madrid", "education_area": "Madrid-Capital", "utm_x": 436145.0, "utm_y": 4469793.0, "longitude": -3.752211189668407, "latitude": 40.376275290486426}, {"center_id": "28006172", "center_name": "REPUBLICA DE ECUADOR", "center_type": "COLEGIO DE EDUCACIÓN INFANTIL Y PRIMARIA", "ownership": "PÚBLICO", "municipality": "Madrid", "education_area": "Madrid-Capital", "utm_x": 438466.0, "utm_y": 4471035.0, "longitude": -3.724991888797113, "latitude": 40.38763842854769}, {"center_id": "28006184", "center_name": "REPUBLICA DEL PARAGUAY", "center_type": "COLEGIO DE EDUCACIÓN INFANTIL Y PRIMARIA", "ownership": "PÚBLICO", "municipality": "Madrid", "education_area": "Madrid-Capital", "utm_x": 441153.0, "utm_y": 4482606.0, "longitude": -3.6944077038581553, "latitude": 40.49206938744483}, {"center_id": "28006196", "center_name": "REPUBLICA DEL URUGUAY", "center_type": "COLEGIO DE EDUCACIÓN INFANTIL Y PRIMARIA", "ownership": "PÚBLICO", "municipality": "Madrid", "education_area": "Madrid-Capital", "utm_x": 437123.0, "utm_y": 4471690.0, "longitude": -3.740878498318023, "latitude": 40.39343867470061}, {"center_id": "28006202", "center_name": "REPUBLICA DE VENEZUELA", "center_type": "COLEGIO DE EDUCACIÓN INFANTIL Y PRIMARIA", "ownership": "PÚBLICO", "municipality": "Madrid", "education_area": "Madrid-Capital", "utm_x": 439421.0, "utm_y": 4470576.0, "longitude": -3.713697293760872, "latitude": 40.38357351934482}, {"center_id": "28006214", "center_name": "LOS ROSALES", "center_type": "COLEGIO DE EDUCACIÓN INFANTIL Y PRIMARIA", "ownership": "PÚBLICO", "municipality": "Madrid", "education_area": "Madrid-Capital", "utm_x": 442499.0, "utm_y": 4466988.0, "longitude": -3.677113473849808, "latitude": 40.3514687766203}, {"center_id": "28006238", "center_name": "RUFINO BLANCO", "center_type": "COLEGIO DE EDUCACIÓN INFANTIL Y PRIMARIA", "ownership": "PÚBLICO", "municipality": "Madrid", "education_area": "Madrid-Capital", "utm_x": 440431.0, "utm_y": 4476631.0, "longitude": -3.702365948616769, "latitude": 40.43819270887249}, {"center_id": "28006251", "center_name": "SAGUNTO", "center_type": "COLEGIO DE EDUCACIÓN INFANTIL Y PRIMARIA", "ownership": "PÚBLICO", "municipality": "Madrid", "education_area": "Madrid-Capital", "utm_x": 441802.0, "utm_y": 4465855.0, "longitude": -3.68521727351138, "latitude": 40.34121367518333}, {"center_id": "28006263", "center_name": "SAN CARLOS", "center_type": "COLEGIO DE EDUCACIÓN INFANTIL Y PRIMARIA", "ownership": "PÚBLICO", "municipality": "Madrid", "education_area": "Madrid-Capital", "utm_x": 439535.0, "utm_y": 4466127.0, "longitude": -3.7119325423394662, "latitude": 40.343502814722704}, {"center_id": "28006275", "center_name": "SAN EUGENIO Y SAN ISIDRO", "center_type": "COLEGIO DE EDUCACIÓN INFANTIL Y PRIMARIA", "ownership": "PÚBLICO", "municipality": "Madrid", "education_area": "Madrid-Capital", "utm_x": 440336.0, "utm_y": 4472629.0, "longitude": -3.7031105487243248, "latitude": 40.40213401464102}, {"center_id": "28006305", "center_name": "SAN IGNACIO DE LOYOLA", "center_type": "COLEGIO DE EDUCACIÓN INFANTIL Y PRIMARIA", "ownership": "PÚBLICO", "municipality": "Madrid", "education_area": "Madrid-Capital", "utm_x": 438744.0, "utm_y": 4470724.0, "longitude": -3.721686843471032, "latitude": 40.38485727784204}, {"center_id": "28006317", "center_name": "SAN ILDEFONSO", "center_type": "COLEGIO DE EDUCACIÓN INFANTIL Y PRIMARIA", "ownership": "PÚBLICO", "municipality": "Madrid", "education_area": "Madrid-Capital", "utm_x": 439573.0, "utm_y": 4473847.0, "longitude": -3.7122171238541806, "latitude": 40.41305130739381}, {"center_id": "28006329", "center_name": "SAN ISIDORO", "center_type": "COLEGIO DE EDUCACIÓN INFANTIL Y PRIMARIA", "ownership": "PÚBLICO", "municipality": "Madrid", "education_area": "Madrid-Capital", "utm_x": 442187.0, "utm_y": 4473102.0, "longitude": -3.6813418842758825, "latitude": 40.4065256281872}, {"center_id": "28006354", "center_name": "SAN JUAN DE LA CRUZ", "center_type": "COLEGIO DE EDUCACIÓN INFANTIL Y PRIMARIA", "ownership": "PÚBLICO", "municipality": "Madrid", "education_area": "Madrid-Capital", "utm_x": 442378.0, "utm_y": 4478978.0, "longitude": -3.679623778766701, "latitude": 40.45947276982935}, {"center_id": "28006366", "center_name": "SAN PABLO", "center_type": "COLEGIO DE EDUCACIÓN INFANTIL Y PRIMARIA", "ownership": "PÚBLICO", "municipality": "Madrid", "education_area": "Madrid-Capital", "utm_x": 444681.0, "utm_y": 4471192.0, "longitude": -3.6517853093536985, "latitude": 40.38948866449565}, {"center_id": "28006378", "center_name": "SANTA ANA Y SAN RAFAEL", "center_type": "CENTRO PRIVADO DE EDUCACIÓN INFANTIL, PRIMARIA Y SECUNDARIA", "ownership": "PRIVADO CONCERTADO", "municipality": "Madrid", "education_area": "Madrid-Capital", "utm_x": 443286.0, "utm_y": 4474769.0, "longitude": -3.6685393266924584, "latitude": 40.42161846045098}, {"center_id": "28006381", "center_name": "SANTA MARIA", "center_type": "COLEGIO DE EDUCACIÓN INFANTIL Y PRIMARIA", "ownership": "PÚBLICO", "municipality": "Madrid", "education_area": "Madrid-Capital", "utm_x": 440028.0, "utm_y": 4473076.0, "longitude": -3.7067820319682374, "latitude": 40.40613868061154}, {"center_id": "28006391", "center_name": "SANTO DOMINGO", "center_type": "COLEGIO DE EDUCACIÓN INFANTIL Y PRIMARIA", "ownership": "PÚBLICO", "municipality": "Madrid", "education_area": "Madrid-Capital", "utm_x": 445178.0, "utm_y": 4471448.0, "longitude": -3.6459518933396398, "latitude": 40.39182772755111}, {"center_id": "28006408", "center_name": "TIRSO DE MOLINA", "center_type": "COLEGIO DE EDUCACIÓN INFANTIL Y PRIMARIA", "ownership": "PÚBLICO", "municipality": "Madrid", "education_area": "Madrid-Capital", "utm_x": 441559.0, "utm_y": 4471605.0, "longitude": -3.6886051092647096, "latitude": 40.39299601662202}, {"center_id": "28006411", "center_name": "LA ALAMEDA", "center_type": "COLEGIO DE EDUCACIÓN INFANTIL Y PRIMARIA", "ownership": "PÚBLICO", "municipality": "Madrid", "education_area": "Madrid-Capital", "utm_x": 448405.0, "utm_y": 4476499.0, "longitude": -3.6083408360170743, "latitude": 40.43753654306469}, {"center_id": "28006457", "center_name": "VEDRUNA", "center_type": "CENTRO PRIVADO DE EDUCACIÓN INFANTIL, PRIMARIA Y SECUNDARIA", "ownership": "PRIVADO CONCERTADO", "municipality": "Madrid", "education_area": "Madrid-Capital", "utm_x": 439291.0, "utm_y": 4466035.0, "longitude": -3.714796509823225, "latitude": 40.342656308907074}, {"center_id": "28006469", "center_name": "ARCIPRESTE DE HITA", "center_type": "COLEGIO DE EDUCACIÓN INFANTIL Y PRIMARIA", "ownership": "PÚBLICO", "municipality": "Madrid", "education_area": "Madrid-Capital", "utm_x": 438423.0, "utm_y": 4470725.0, "longitude": -3.725468511190076, "latitude": 40.384842623704834}, {"center_id": "28006561", "center_name": "ALAMEDA DE OSUNA", "center_type": "CENTRO PRIVADO DE EDUCACIÓN INFANTIL, PRIMARIA Y SECUNDARIA", "ownership": "PRIVADO", "municipality": "Madrid", "education_area": "Madrid-Capital", "utm_x": 450121.0, "utm_y": 4479083.0, "longitude": -3.588311991867594, "latitude": 40.460919526047306}, {"center_id": "28006779", "center_name": "EL AVE MARIA", "center_type": "CENTRO PRIVADO DE EDUCACIÓN INFANTIL, PRIMARIA Y SECUNDARIA", "ownership": "PRIVADO CONCERTADO", "municipality": "Madrid", "education_area": "Madrid-Capital", "utm_x": 443629.0, "utm_y": 4472108.0, "longitude": -3.664260594798824, "latitude": 40.397670000063364}, {"center_id": "28006809", "center_name": "BEATA FILIPINA-FUND.FELICIANA VIERTOLA", "center_type": "CENTRO PRIVADO DE EDUCACIÓN INFANTIL, PRIMARIA Y SECUNDARIA", "ownership": "PRIVADO CONCERTADO", "municipality": "Madrid", "education_area": "Madrid-Capital", "utm_x": 434419.0, "utm_y": 4470254.0, "longitude": -3.7725891589417575, "latitude": 40.38029412804089}, {"center_id": "28006846", "center_name": "EIPA ESCUELA INFANTIL PARQUE DE LAS AVENIDAS", "center_type": "ESCUELA INFANTIL PRIVADA", "ownership": "PRIVADO", "municipality": "Madrid", "education_area": "Madrid-Capital", "utm_x": 443815.0, "utm_y": 4476712.0, "longitude": -3.6624756625805026, "latitude": 40.43915791763936}, {"center_id": "28007085", "center_name": "COMENDADORAS DE SANTIAGO", "center_type": "CENTRO PRIVADO DE EDUCACIÓN INFANTIL", "ownership": "PRIVADO CONCERTADO", "municipality": "Madrid", "education_area": "Madrid-Capital", "utm_x": 439865.0, "utm_y": 4475438.0, "longitude": -3.708926181406175, "latitude": 40.42740490845616}, {"center_id": "28007103", "center_name": "MADRES CONCEPCIONISTAS", "center_type": "CENTRO PRIVADO DE EDUCACIÓN INFANTIL, PRIMARIA Y SECUNDARIA", "ownership": "PRIVADO CONCERTADO", "municipality": "Madrid", "education_area": "Madrid-Capital", "utm_x": 439480.0, "utm_y": 4475316.0, "longitude": -3.7134529661055464, "latitude": 40.42627796030698}, {"center_id": "28007127", "center_name": "CRISTO REY", "center_type": "CENTRO PRIVADO DE EDUCACIÓN INFANTIL, PRIMARIA Y SECUNDARIA", "ownership": "PRIVADO CONCERTADO", "municipality": "Madrid", "education_area": "Madrid-Capital", "utm_x": 444094.0, "utm_y": 4480242.0, "longitude": -3.659497039765969, "latitude": 40.47097670714739}, {"center_id": "28007139", "center_name": "CRISTO REY", "center_type": "CENTRO PRIVADO DE EDUCACIÓN INFANTIL, PRIMARIA Y SECUNDARIA", "ownership": "PRIVADO CONCERTADO", "municipality": "Madrid", "education_area": "Madrid-Capital", "utm_x": 438031.0, "utm_y": 4473779.0, "longitude": -3.730383754726443, "latitude": 40.41232535778815}, {"center_id": "28007152", "center_name": "LUZ CASANOVA EMBAJADORES", "center_type": "CENTRO PRIVADO DE EDUCACIÓN INFANTIL, PRIMARIA Y SECUNDARIA", "ownership": "PRIVADO CONCERTADO", "municipality": "Madrid", "education_area": "Madrid-Capital", "utm_x": 440875.0, "utm_y": 4471967.0, "longitude": -3.6966976698160514, "latitude": 40.39620882750812}, {"center_id": "28007191", "center_name": "NAZARET-OPORTO", "center_type": "CENTRO PRIVADO DE EDUCACIÓN INFANTIL, PRIMARIA Y SECUNDARIA", "ownership": "PRIVADO CONCERTADO", "municipality": "Madrid", "education_area": "Madrid-Capital", "utm_x": 438208.0, "utm_y": 4471326.0, "longitude": -3.7280596349438446, "latitude": 40.39024079564058}, {"center_id": "28007292", "center_name": "SAGRADO CORAZON DE JESUS", "center_type": "CENTRO PRIVADO DE EDUCACIÓN INFANTIL, PRIMARIA Y SECUNDARIA", "ownership": "PRIVADO CONCERTADO", "municipality": "Madrid", "education_area": "Madrid-Capital", "utm_x": 440809.0, "utm_y": 4476256.0, "longitude": -3.6978744120774882, "latitude": 40.43484153058383}, {"center_id": "28007309", "center_name": "COLEGIO NUEVO EQUIPO", "center_type": "CENTRO PRIVADO DE EDUCACIÓN INFANTIL, PRIMARIA Y SECUNDARIA", "ownership": "PRIVADO CONCERTADO", "municipality": "Madrid", "education_area": "Madrid-Capital", "utm_x": 445721.0, "utm_y": 4477033.0, "longitude": -3.6400308515734725, "latitude": 40.44217625819891}, {"center_id": "28007371", "center_name": "SAN LUIS-FELCA", "center_type": "CENTRO PRIVADO DE EDUCACIÓN INFANTIL Y PRIMARIA", "ownership": "PRIVADO CONCERTADO", "municipality": "Madrid", "education_area": "Madrid-Capital", "utm_x": 439793.0, "utm_y": 4470488.0, "longitude": -3.7093066669082493, "latitude": 40.382807734165176}, {"center_id": "28007395", "center_name": "FUNDACION CALDEIRO", "center_type": "CENTRO PRIVADO DE EDUCACIÓN INFANTIL, PRIMARIA Y SECUNDARIA", "ownership": "PRIVADO CONCERTADO", "municipality": "Madrid", "education_area": "Madrid-Capital", "utm_x": 443484.0, "utm_y": 4475977.0, "longitude": -3.666312857079037, "latitude": 40.43251423146521}, {"center_id": "28007462", "center_name": "HASTINGS SCHOOL (BRITANICO)", "center_type": "CENTRO DOCENTE EXTRANJERO EN ESPAÑA", "ownership": "PRIVADO", "municipality": "Madrid", "education_area": "Madrid-Capital", "utm_x": 442396.0, "utm_y": 4479564.0, "longitude": -3.679464680559473, "latitude": 40.464752967451666}, {"center_id": "28007607", "center_name": "JESUS MAESTRO", "center_type": "CENTRO PRIVADO DE EDUCACIÓN INFANTIL, PRIMARIA Y SECUNDARIA", "ownership": "PRIVADO CONCERTADO", "municipality": "Madrid", "education_area": "Madrid-Capital", "utm_x": 439618.0, "utm_y": 4476960.0, "longitude": -3.7119824355750155, "latitude": 40.441097844649626}, {"center_id": "28007619", "center_name": "JESÚS MARIA", "center_type": "CENTRO PRIVADO DE EDUCACIÓN SECUNDARIA", "ownership": "PRIVADO CONCERTADO", "municipality": "Madrid", "education_area": "Madrid-Capital", "utm_x": 446339.0, "utm_y": 4475633.0, "longitude": -3.6326259087342843, "latitude": 40.429604371231406}, {"center_id": "28007620", "center_name": "DIRECCION AREA TERRITORIAL MADRID-CAPITAL", "center_type": "ESTABLECIMIENTO ADMINISTRATIVO", "ownership": "PÚBLICO", "municipality": "Madrid", "education_area": "Madrid-Capital", "utm_x": 441436.0, "utm_y": 4476888.0, "longitude": -3.6905407103310908, "latitude": 40.440579266460524}, {"center_id": "28007826", "center_name": "MADRE DE DIOS", "center_type": "CENTRO PRIVADO DE EDUCACIÓN INFANTIL, PRIMARIA Y SECUNDARIA", "ownership": "PRIVADO CONCERTADO", "municipality": "Madrid", "education_area": "Madrid-Capital", "utm_x": 444318.0, "utm_y": 4478376.0, "longitude": -3.6566910585422945, "latitude": 40.45418191576425}, {"center_id": "28007917", "center_name": "MARIA INMACULADA", "center_type": "CENTRO PRIVADO DE EDUCACIÓN INFANTIL, PRIMARIA Y SECUNDARIA", "ownership": "PRIVADO CONCERTADO", "municipality": "Madrid", "education_area": "Madrid-Capital", "utm_x": 440971.0, "utm_y": 4476254.0, "longitude": -3.695964345887503, "latitude": 40.434835027302526}, {"center_id": "28007942", "center_name": "MARIA REINA", "center_type": "CENTRO PRIVADO DE EDUCACIÓN INFANTIL, PRIMARIA Y SECUNDARIA", "ownership": "PRIVADO CONCERTADO", "municipality": "Madrid", "education_area": "Madrid-Capital", "utm_x": 445513.0, "utm_y": 4475704.0, "longitude": -3.6423693846093936, "latitude": 40.43019028518746}, {"center_id": "28007954", "center_name": "MARIA REINA", "center_type": "CENTRO PRIVADO DE EDUCACIÓN INFANTIL, PRIMARIA Y SECUNDARIA", "ownership": "PRIVADO CONCERTADO", "municipality": "Madrid", "education_area": "Madrid-Capital", "utm_x": 440375.0, "utm_y": 4468488.0, "longitude": -3.702263466806114, "latitude": 40.364832503579244}, {"center_id": "28007978", "center_name": "MATER CLEMENTISSIMA", "center_type": "CENTRO PRIVADO DE EDUCACIÓN PRIMARIA Y SECUNDARIA", "ownership": "PRIVADO CONCERTADO", "municipality": "Madrid", "education_area": "Madrid-Capital", "utm_x": 443860.0, "utm_y": 4471371.0, "longitude": -3.6614737520778826, "latitude": 40.39104627699597}, {"center_id": "28007991", "center_name": "MATER IMMACULATA", "center_type": "CENTRO PRIVADO DE EDUCACIÓN INFANTIL, PRIMARIA Y SECUNDARIA", "ownership": "PRIVADO CONCERTADO", "municipality": "Madrid", "education_area": "Madrid-Capital", "utm_x": 444713.0, "utm_y": 4477300.0, "longitude": -3.6519391986773164, "latitude": 40.444515121292014}, {"center_id": "28008004", "center_name": "DIRECCION AREA TERRITORIAL MADRID-OESTE", "center_type": "ESTABLECIMIENTO ADMINISTRATIVO", "ownership": "PÚBLICO", "municipality": "Collado Villalba", "education_area": "Madrid-Oeste", "utm_x": 415202.0, "utm_y": 4498820.0, "longitude": -4.002775085901658, "latitude": 40.635872272140624}, {"center_id": "28008016", "center_name": "LA MERCED", "center_type": "CENTRO PRIVADO DE EDUCACIÓN INFANTIL Y PRIMARIA", "ownership": "PRIVADO CONCERTADO", "municipality": "Madrid", "education_area": "Madrid-Capital", "utm_x": 440895.0, "utm_y": 4474962.0, "longitude": -3.696740213081138, "latitude": 40.42319069249875}, {"center_id": "28008053", "center_name": "MIRASIERRA", "center_type": "CENTRO PRIVADO DE EDUCACIÓN INFANTIL, PRIMARIA Y SECUNDARIA", "ownership": "PRIVADO CONCERTADO", "municipality": "Madrid", "education_area": "Madrid-Capital", "utm_x": 445685.0, "utm_y": 4475744.0, "longitude": -3.640345144948896, "latitude": 40.430561876580114}, {"center_id": "28008107", "center_name": "BLANCA DE CASTILLA", "center_type": "CENTRO PRIVADO DE EDUCACIÓN INFANTIL, PRIMARIA Y SECUNDARIA", "ownership": "PRIVADO CONCERTADO", "municipality": "Madrid", "education_area": "Madrid-Capital", "utm_x": 440948.0, "utm_y": 4475999.0, "longitude": -3.696211808377697, "latitude": 40.43253623748169}, {"center_id": "28008211", "center_name": "NUESTRA SEÑORA DEL BUEN CONSEJO", "center_type": "CENTRO PRIVADO DE EDUCACIÓN INFANTIL, PRIMARIA Y SECUNDARIA", "ownership": "PRIVADO CONCERTADO", "municipality": "Madrid", "education_area": "Madrid-Capital", "utm_x": 439540.0, "utm_y": 4477629.0, "longitude": -3.7129657651955372, "latitude": 40.447118803491655}, {"center_id": "28008223", "center_name": "NUESTRA SEÑORA DEL BUEN CONSEJO", "center_type": "CENTRO PRIVADO DE EDUCACIÓN INFANTIL, PRIMARIA Y SECUNDARIA", "ownership": "PRIVADO CONCERTADO", "municipality": "Madrid", "education_area": "Madrid-Capital", "utm_x": 444349.0, "utm_y": 4477935.0, "longitude": -3.6562868281737044, "latitude": 40.45021124157502}, {"center_id": "28008259", "center_name": "NUESTRA SEÑORA DE LOS DOLORES", "center_type": "ESCUELA INFANTIL PRIVADA", "ownership": "PRIVADO CONCERTADO", "municipality": "Madrid", "education_area": "Madrid-Capital", "utm_x": 440120.0, "utm_y": 4475822.0, "longitude": -3.7059563973643126, "latitude": 40.43088254598003}, {"center_id": "28008296", "center_name": "NUESTRA SEÑORA DE FATIMA", "center_type": "CENTRO PRIVADO DE EDUCACIÓN INFANTIL Y PRIMARIA", "ownership": "PRIVADO CONCERTADO", "municipality": "Madrid", "education_area": "Madrid-Capital", "utm_x": 444793.0, "utm_y": 4475973.0, "longitude": -3.6508806051906464, "latitude": 40.43256611069109}, {"center_id": "28008351", "center_name": "NUESTRA SEÑORA DE LAS MARAVILLAS", "center_type": "CENTRO PRIVADO DE EDUCACIÓN INFANTIL, PRIMARIA Y SECUNDARIA", "ownership": "PRIVADO", "municipality": "Madrid", "education_area": "Madrid-Capital", "utm_x": 441719.0, "utm_y": 4477558.0, "longitude": -3.6872654957591355, "latitude": 40.446634818581124}, {"center_id": "28008387", "center_name": "OBRA SO.N.S.MONTSERRAT-S.SIMON Y S.JUDAS", "center_type": "CENTRO PRIVADO DE EDUCACIÓN INFANTIL, PRIMARIA Y SECUNDARIA", "ownership": "PRIVADO CONCERTADO", "municipality": "Madrid", "education_area": "Madrid-Capital", "utm_x": 440318.0, "utm_y": 4468528.0, "longitude": -3.7029385085018482, "latitude": 40.365188767426616}, {"center_id": "28008399", "center_name": "DIRECCION AREA TERRITORIAL MADRID-ESTE", "center_type": "ESTABLECIMIENTO ADMINISTRATIVO", "ownership": "PÚBLICO", "municipality": "Alcalá de Henares", "education_area": "Madrid-Este", "utm_x": 468307.0, "utm_y": 4482381.0, "longitude": -3.3739824595232384, "latitude": 40.49152344645882}, {"center_id": "28008405", "center_name": "NUESTRA SEÑORA DE LAS NIEVES", "center_type": "CENTRO PRIVADO DE EDUCACIÓN INFANTIL, PRIMARIA Y SECUNDARIA", "ownership": "PRIVADO CONCERTADO", "municipality": "Madrid", "education_area": "Madrid-Capital", "utm_x": 447938.0, "utm_y": 4477441.0, "longitude": -3.6139239887739034, "latitude": 40.44599353461574}, {"center_id": "28008430", "center_name": "NUESTRA SEÑORA DE LA PAZ", "center_type": "CENTRO PRIVADO DE EDUCACIÓN INFANTIL Y PRIMARIA", "ownership": "PRIVADO CONCERTADO", "municipality": "Madrid", "education_area": "Madrid-Capital", "utm_x": 442627.0, "utm_y": 4472913.0, "longitude": -3.6761396708863727, "latitude": 40.404853452783705}, {"center_id": "28008508", "center_name": "NUESTRA SEÑORA DEL PILAR", "center_type": "CENTRO PRIVADO DE EDUCACIÓN INFANTIL, PRIMARIA Y SECUNDARIA", "ownership": "PRIVADO CONCERTADO", "municipality": "Madrid", "education_area": "Madrid-Capital", "utm_x": 441476.0, "utm_y": 4479978.0, "longitude": -3.6903539320860306, "latitude": 40.46841815643214}, {"center_id": "28008511", "center_name": "NUESTRA SEÑORA DEL PILAR", "center_type": "CENTRO PRIVADO DE EDUCACIÓN INFANTIL, PRIMARIA Y SECUNDARIA", "ownership": "PRIVADO CONCERTADO", "municipality": "Madrid", "education_area": "Madrid-Capital", "utm_x": 442231.0, "utm_y": 4475516.0, "longitude": -3.681042612383224, "latitude": 40.42827523434394}, {"center_id": "28008600", "center_name": "LICEO OROQUIETA", "center_type": "CENTRO PRIVADO DE EDUCACIÓN INFANTIL Y PRIMARIA", "ownership": "PRIVADO CONCERTADO", "municipality": "Madrid", "education_area": "Madrid-Capital", "utm_x": 441251.0, "utm_y": 4467384.0, "longitude": -3.691844978462602, "latitude": 40.354949215188036}, {"center_id": "28008636", "center_name": "EL OSITO DE LUIS DE LARRAINZA", "center_type": "ESCUELA INFANTIL PRIVADA", "ownership": "PRIVADO", "municipality": "Madrid", "education_area": "Madrid-Capital", "utm_x": 443275.0, "utm_y": 4478001.0, "longitude": -3.668957490089304, "latitude": 40.45073320442682}, {"center_id": "28008703", "center_name": "EL PORVENIR", "center_type": "CENTRO PRIVADO DE EDUCACIÓN INFANTIL, PRIMARIA Y SECUNDARIA", "ownership": "PRIVADO CONCERTADO", "municipality": "Madrid", "education_area": "Madrid-Capital", "utm_x": 440266.0, "utm_y": 4477385.0, "longitude": -3.704382185900073, "latitude": 40.44497323033732}, {"center_id": "28008715", "center_name": "EL PRADO", "center_type": "CENTRO PRIVADO DE EDUCACIÓN PRIMARIA Y SECUNDARIA", "ownership": "PRIVADO", "municipality": "Madrid", "education_area": "Madrid-Capital", "utm_x": 440445.0, "utm_y": 4483129.0, "longitude": -3.7028108263361768, "latitude": 40.49673025773512}, {"center_id": "28008806", "center_name": "RAMON Y CAJAL", "center_type": "CENTRO PRIVADO DE EDUCACIÓN PRIMARIA Y SECUNDARIA", "ownership": "PRIVADO", "municipality": "Madrid", "education_area": "Madrid-Capital", "utm_x": 443957.0, "utm_y": 4479078.0, "longitude": -3.6610102554438217, "latitude": 40.46048161048335}, {"center_id": "28008818", "center_name": "REINA DE LOS ANGELES", "center_type": "CENTRO PRIVADO DE EDUCACIÓN INFANTIL", "ownership": "PRIVADO", "municipality": "Madrid", "education_area": "Madrid-Capital", "utm_x": 441857.0, "utm_y": 4478028.0, "longitude": -3.6856813031235323, "latitude": 40.45087845567442}, {"center_id": "28008892", "center_name": "SAGRADO CORAZON", "center_type": "CENTRO PRIVADO DE EDUCACIÓN INFANTIL, PRIMARIA Y SECUNDARIA", "ownership": "PRIVADO CONCERTADO", "municipality": "Madrid", "education_area": "Madrid-Capital", "utm_x": 442675.0, "utm_y": 4480039.0, "longitude": -3.6762168854909176, "latitude": 40.469051276178135}, {"center_id": "28008909", "center_name": "SAGRADO CORAZON", "center_type": "CENTRO PRIVADO DE EDUCACIÓN INFANTIL, PRIMARIA Y SECUNDARIA", "ownership": "PRIVADO CONCERTADO", "municipality": "Madrid", "education_area": "Madrid-Capital", "utm_x": 443112.0, "utm_y": 4479031.0, "longitude": -3.670971918922579, "latitude": 40.46000079198541}, {"center_id": "28008910", "center_name": "SAGRADO CORAZON", "center_type": "CENTRO PRIVADO DE EDUCACIÓN INFANTIL, PRIMARIA Y SECUNDARIA", "ownership": "PRIVADO CONCERTADO", "municipality": "Madrid", "education_area": "Madrid-Capital", "utm_x": 446790.0, "utm_y": 4470130.0, "longitude": -3.626849170148946, "latitude": 40.38005885096767}, {"center_id": "28008922", "center_name": "SANTA MARIA MICAELA", "center_type": "CENTRO PRIVADO DE EDUCACIÓN INFANTIL, PRIMARIA Y SECUNDARIA", "ownership": "PRIVADO CONCERTADO", "municipality": "Madrid", "education_area": "Madrid-Capital", "utm_x": 437303.0, "utm_y": 4471793.0, "longitude": -3.738767869856781, "latitude": 40.39438011267863}, {"center_id": "28008934", "center_name": "LA SALLE-SAGRADO CORAZON", "center_type": "CENTRO PRIVADO DE EDUCACIÓN INFANTIL, PRIMARIA Y SECUNDARIA", "ownership": "PRIVADO CONCERTADO", "municipality": "Madrid", "education_area": "Madrid-Capital", "utm_x": 439193.0, "utm_y": 4481581.0, "longitude": -3.717436114159359, "latitude": 40.482694571458765}, {"center_id": "28008946", "center_name": "SAGRADOS CORAZONES", "center_type": "CENTRO PRIVADO DE EDUCACIÓN INFANTIL, PRIMARIA Y SECUNDARIA", "ownership": "PRIVADO CONCERTADO", "municipality": "Madrid", "education_area": "Madrid-Capital", "utm_x": 438913.0, "utm_y": 4475938.0, "longitude": -3.720196439253369, "latitude": 40.43183975775214}, {"center_id": "28008958", "center_name": "ENRIQUETA AYMER", "center_type": "CENTRO PRIVADO DE EDUCACIÓN INFANTIL, PRIMARIA Y SECUNDARIA", "ownership": "PRIVADO CONCERTADO", "municipality": "Madrid", "education_area": "Madrid-Capital", "utm_x": 433771.0, "utm_y": 4470165.0, "longitude": -3.780213126234781, "latitude": 40.379441132828454}, {"center_id": "28008995", "center_name": "SAN ANTONIO", "center_type": "CENTRO PRIVADO DE EDUCACIÓN INFANTIL Y PRIMARIA", "ownership": "PRIVADO CONCERTADO", "municipality": "Madrid", "education_area": "Madrid-Capital", "utm_x": 440373.0, "utm_y": 4478025.0, "longitude": -3.70318062154191, "latitude": 40.45074630230693}, {"center_id": "28009033", "center_name": "SAN BUENAVENTURA", "center_type": "CENTRO PRIVADO DE EDUCACIÓN INFANTIL, PRIMARIA Y SECUNDARIA", "ownership": "PRIVADO CONCERTADO", "municipality": "Madrid", "education_area": "Madrid-Capital", "utm_x": 436603.0, "utm_y": 4473264.0, "longitude": -3.7471619044390896, "latitude": 40.407578494638024}, {"center_id": "28009069", "center_name": "ARTURO SORIA", "center_type": "CENTRO PRIVADO DE EDUCACIÓN INFANTIL, PRIMARIA Y SECUNDARIA", "ownership": "PRIVADO", "municipality": "Madrid", "education_area": "Madrid-Capital", "utm_x": 444566.0, "utm_y": 4477979.0, "longitude": -3.6537317676583254, "latitude": 40.450622115749105}, {"center_id": "28009082", "center_name": "SAN EULOGIO", "center_type": "CENTRO PRIVADO DE EDUCACIÓN INFANTIL, PRIMARIA Y SECUNDARIA", "ownership": "PRIVADO CONCERTADO", "municipality": "Madrid", "education_area": "Madrid-Capital", "utm_x": 447241.0, "utm_y": 4469540.0, "longitude": -3.6214875475984343, "latitude": 40.3747724049587}, {"center_id": "28009185", "center_name": "SAN JAIME APOSTOL", "center_type": "CENTRO PRIVADO DE EDUCACIÓN INFANTIL, PRIMARIA Y SECUNDARIA", "ownership": "PRIVADO CONCERTADO", "municipality": "Madrid", "education_area": "Madrid-Capital", "utm_x": 441563.0, "utm_y": 4466994.0, "longitude": -3.688135314043942, "latitude": 40.35145777993879}, {"center_id": "28009203", "center_name": "SAN JAVIER", "center_type": "CENTRO PRIVADO DE EDUCACIÓN INFANTIL, PRIMARIA Y SECUNDARIA", "ownership": "PRIVADO CONCERTADO", "municipality": "Madrid", "education_area": "Madrid-Capital", "utm_x": 440415.0, "utm_y": 4472104.0, "longitude": -3.7021305022089086, "latitude": 40.39741020877151}, {"center_id": "28009215", "center_name": "SAN JOSE", "center_type": "CENTRO PRIVADO DE EDUCACIÓN INFANTIL, PRIMARIA Y SECUNDARIA", "ownership": "PRIVADO CONCERTADO", "municipality": "Madrid", "education_area": "Madrid-Capital", "utm_x": 443125.0, "utm_y": 4471341.0, "longitude": -3.670130707666574, "latitude": 40.39072615858345}, {"center_id": "28009264", "center_name": "SAN JOSE", "center_type": "CENTRO PRIVADO DE EDUCACIÓN INFANTIL, PRIMARIA Y SECUNDARIA", "ownership": "PRIVADO CONCERTADO", "municipality": "Madrid", "education_area": "Madrid-Capital", "utm_x": 439063.0, "utm_y": 4473736.0, "longitude": -3.7182171131282904, "latitude": 40.41201418747272},